name,address1,address2,address3,borough_name,website,os_addressbase_uprn,borough_code,ward_2018_name,ward_2018_code,easting,northing,longitude,latitude,runtime
Harlequin,27 Arlington Way,London,Finsbury,Islington,,,E09000019,Clerkenwell,E05000370,531467.0001221001,182944.00012210011,-0.10452278167672048,51.52960001220874,02/20/2022
Peasant,240 St John Street,London,Finsbury,Islington,,,E09000019,Clerkenwell,E05000370,531676.0001221001,182495.00012210011,-0.10167910375485843,51.52551590485401,02/20/2022
Blues Kitchen,134 Curtain Road,London,Shoreditch,Hackney,,,E09000012,Hoxton East & Shoreditch,E05009377,533290.0001221001,182597.00012210011,-0.07838609530625593,51.52605391772326,02/20/2022
Caraway Lounge,290 North Street,Romford,,Havering,,,E09000016,Brooklands,E05000306,550626.0001221001,189606.00012210011,0.17436355740567813,51.5846782215041,02/20/2022
Rye,31 Peckham Rye,Peckham,London,Southwark,,,E09000028,Rye Lane,E05011113,534483.0001221001,175739.00012210011,-0.06381138808364838,51.4641356522452,02/20/2022
Eleven,5 Fernlea Road,Balham,,Wandsworth,,,E09000032,Balham,E05000610,528788.0001221001,173166.00012210011,-0.14669365674920773,51.44233471981021,02/20/2022
Royal,Boston Road,Hanwell,,Ealing,,,E09000009,Northfield,E05000182,516257.0001221001,179033.00012210011,-0.3250015995528789,51.49778281026171,02/20/2022
Bitter End Bar,139 Masons Hill,Bromley,,Bromley,,,E09000006,Bromley Town,E05000109,540989.0001221001,168298.00012210011,0.026833437505355034,51.395680009795896,02/20/2022
Hope,3 Melon Road,Peckham,London,Southwark,,,E09000028,Peckham,E05011110,534065.0001221001,176723.00012210011,-0.06945244459193495,51.47307848719919,02/20/2022
Blues Kitchen,40 Acre Lane,Brixton,,Lambeth,,,E09000022,Ferndale,E05000421,530674.0001221001,175157.00012210011,-0.11883350311400073,51.45979724415786,02/20/2022
Richmal Crompton,23 Westmoreland Place,Bromley,,Bromley,,,E09000006,Bromley Town,E05000109,540356.0001221001,168677.00012210011,0.017889537018804334,51.39924309155157,02/20/2022
Partridge,194 High Street,Bromley,,Bromley,,,E09000006,Bromley Town,E05000109,540199.0001221001,169278.00012210011,0.015871392643457535,51.40468316095841,02/20/2022
Bar Sport,196-198 High Street,Bromley,,Bromley,,,E09000006,Bromley Town,E05000109,540199.0001221001,169278.00012210011,0.015871392643457535,51.40468316095841,02/20/2022
Havet,195-199 High Street,Bromley,,Bromley,,,E09000006,Bromley Town,E05000109,540169.0001221001,169377.00012210011,0.015479446656137432,51.405580298501384,02/20/2022
Greyhound,205 High Street,Bromley,,Bromley,,,E09000006,Bromley Town,E05000109,540116.0001221001,169415.00012210011,0.014732883139538768,51.405934906336284,02/20/2022
Star & Garter,227 High Street,Bromley,,Bromley,,,E09000006,Bromley Town,E05000109,540068.0001221001,169466.00012210011,0.014063290496619321,51.40640510662853,02/20/2022
Swan & Mitre,260-262 High Street,Bromley,,Bromley,,,E09000006,Bromley Town,E05000109,540035.0001221001,169458.00012210011,0.013585933445957332,51.406341360514965,02/20/2022
Metropolis,256A High Street,Bromley,,Bromley,,,E09000006,Bromley Town,E05000109,540035.0001221001,169458.00012210011,0.013585933445957332,51.406341360514965,02/20/2022
Barrel & Horn,204-206 High Street,Bromley,,Bromley,,,E09000006,Bromley Town,E05000109,540135.0001221001,169361.00012210011,0.014984566036318854,51.40544490851622,02/20/2022
O'Neill's,27-29 East St,Bromley,,Bromley,,,E09000006,Bromley Town,E05000109,540291.0001221001,169450.00012210011,0.017261384900337195,51.4062061847306,02/20/2022
Railway Tavern,45 East Street,Bromley,,Bromley,,,E09000006,Bromley Town,E05000109,540327.0001221001,169526.00012210011,0.017808761208778782,51.406880294109605,02/20/2022
Belgo,242 The Glades,Bromley,,Bromley,,,E09000006,Bickley,E05000106,541689.0001221001,169155.00012210011,0.03723196016794168,51.40320743180347,02/20/2022
Lord Holmesdale,184 Homesdale Road,Bromley,,Bromley,,,E09000006,Bickley,E05000106,541655.0001221001,168734.00012210011,0.03657532046177706,51.39943241027952,02/20/2022
Oak,206 Widmore Road,Bromley,,Bromley,,,E09000006,Bickley,E05000106,541576.0001221001,169386.00012210011,0.03570053319932007,51.40531164412234,02/20/2022
Crown & Anchor,19 Park Road,Bromley,,Bromley,,,E09000006,Plaistow and Sundridge,E05000125,540702.0001221001,169617.00012210011,0.02323350961581886,51.407605186306895,02/20/2022
Freelands Tavern,31 Freelands Road,Bromley,,Bromley,,,E09000006,Plaistow and Sundridge,E05000125,540901.0001221001,169899.00012210011,0.02620517879491853,51.41009010979857,02/20/2022
White Horse,64 Palace Road,Bromley,,Bromley,,,E09000006,Plaistow and Sundridge,E05000125,540648.0001221001,169693.00012210011,0.022487677062997896,51.40830159874149,02/20/2022
Anglesey Arms,90 Palace Road,Bromley,,Bromley,,,E09000006,Plaistow and Sundridge,E05000125,540648.0001221001,169693.00012210011,0.022487677062997896,51.40830159874149,02/20/2022
Red Lion,10 North Road,Bromley,,Bromley,,,E09000006,Plaistow and Sundridge,E05000125,540713.0001221001,169823.00012210011,0.02347332546361428,51.4094537857575,02/20/2022
Hop & Rye,54 London Road,Bromley,,Bromley,,,E09000006,Plaistow and Sundridge,E05000125,539866.0001221001,169976.00012210011,0.011361786920713894,51.411038390184494,02/20/2022
Prince Frederick,31 Nichol Lane,Bromley,,Bromley,,,E09000006,Plaistow and Sundridge,E05000125,540516.0001221001,170460.00012210011,0.02089481285116273,51.41522739020383,02/20/2022
Bonnie's,28-30 Bromley Hill,Bromley,Downham,Lewisham,,,E09000023,Downham,E05000442,539045.0001221001,170998.00012210011,-3.604398052209928e-05,51.42042521069325,02/20/2022
Downham Tavern,419 Downham Way,Grove Park,Downham,Lewisham,,,E09000023,Downham,E05000442,540051.0001221001,171769.00012210011,0.014729034980191007,51.42710653439243,02/20/2022
Shortlands Tavern,5 Station Road,Bromley,,Bromley,,,E09000006,Bromley Town,E05000109,539499.0001221001,169228.00012210011,0.0057933203390936674,51.404406436164344,02/20/2022
Greyhound,Commonside,Keston,,Bromley,,,E09000006,Bromley Common and Keston,E05000108,541322.0001221001,164673.00012210011,0.030175058863120555,51.363019132750246,02/20/2022
Fox Inn,Heathfield Road,Keston,,Bromley,,,E09000006,Bromley Common and Keston,E05000108,541240.0001221001,164427.00012210011,0.028900150420438402,51.36082871144336,02/20/2022
Crown Inn,Leaves Green Road,Keston,,Bromley,,,E09000006,Darwin,E05000117,541501.0001221001,162284.00012210011,0.03179451578491573,51.34150444613813,02/20/2022
Kings Arms,Leaves Green Rd,Keston,,Bromley,,,E09000006,Darwin,E05000117,541483.0001221001,161523.00012210011,0.0312338200047999,51.3346697451018,02/20/2022
New Inn,59 Station Approach,Hayes,,Bromley,,,E09000006,Hayes and Coney Hall,E05000119,540081.0001221001,166024.00012210011,0.012891721411469019,51.375468240681194,02/20/2022
Real Ale Way,"55 Station Approach, Hayes",Hayes,,Bromley,,,E09000006,Hayes and Coney Hall,E05000119,540096.0001221001,166069.00012210011,0.013124866183456187,51.37586896035383,02/20/2022
Pie & Pint Bar,6 Bourne Way,Hayes,,Bromley,,,E09000006,Hayes and Coney Hall,E05000119,539774.0001221001,166028.00012210011,0.008484778160294647,51.375579864549515,02/20/2022
George,29 Hayes Street,Hayes,,Bromley,,,E09000006,Hayes and Coney Hall,E05000119,540557.0001221001,166471.00012210011,0.019903906894090224,51.379367814287534,02/20/2022
Crooked Billet,286 Southborough Lane,Bromley,,Bromley,,,E09000006,Bromley Common and Keston,E05000108,543205.0001221001,167655.00012210011,0.058408912450172296,51.38934635578069,02/20/2022
Chequers,177 Southborough Lane,Bromley,,Bromley,,,E09000006,Bickley,E05000106,542395.0001221001,167675.00012210011,0.046782110578528185,51.38972995716179,02/20/2022
Two Doves,37 Oakley Road Kent,Bromley Common,Bromley,Bromley,,,E09000006,Bromley Common and Keston,E05000108,542066.0001221001,165670.00012210011,0.04125429542848265,51.371793544952524,02/20/2022
Bird in Hand,62 Gravel Road,Bromley Common,Bromley,Bromley,,,E09000006,Bromley Common and Keston,E05000108,542269.0001221001,165905.00012210011,0.044263170227384366,51.37385465046774,02/20/2022
Bricklayers Arms,141-143 Masons Hill,Bromley,,Bromley,,,E09000006,Bromley Town,E05000109,541017.0001221001,168251.00012210011,0.027217012822397905,51.395250659212586,02/20/2022
Crown of Bromley,14 Masons Hill,Bromley,,Bromley,,,E09000006,Bromley Town,E05000109,541001.0001221001,168199.00012210011,0.026966495176193376,51.39478731059805,02/20/2022
Chatterton Arms,41 Chatterton Road,Bromley Common,Bromley,Bromley,,,E09000006,Bromley Common and Keston,E05000108,541681.0001221001,167952.00012210011,0.03663664194437226,51.39239809788691,02/20/2022
Crown,155 Bromley Common,Bromley Common,Bromley,Bromley,,,E09000006,Bromley Common and Keston,E05000108,541657.0001221001,167678.00012210011,0.03618252986705559,51.38994165575818,02/20/2022
George Inn,111 High Street,Beckenham,,Bromley,,,E09000006,Copers Cope,E05000113,537275.0001221001,169398.00012210011,-0.026098217639805268,51.40647702203658,02/20/2022
White Horse,215 High Street,Beckenham,,Bromley,,,E09000006,Copers Cope,E05000113,537102.0001221001,169327.00012210011,-0.02861168065832112,51.40588077804349,02/20/2022
Kelsey House,75 High Street,Beckenham,,Bromley,,,E09000006,Copers Cope,E05000113,537394.0001221001,169457.00012210011,-0.02436532947849697,51.40697845102758,02/20/2022
O'Neill's,9 High Street,Beckenham,,Bromley,,,E09000006,Copers Cope,E05000113,537442.0001221001,169806.00012210011,-0.023540287698094964,51.41010338334113,02/20/2022
Patrick's Bar,5 High Street,Beckenham,,Bromley,,,E09000006,Copers Cope,E05000113,537442.0001221001,169806.00012210011,-0.023540287698094964,51.41010338334113,02/20/2022
Bricklayers Arms,237 High Street,Beckenham,,Bromley,,,E09000006,Copers Cope,E05000113,536990.0001221001,169350.00012210011,-0.030212220163407855,51.40611455546696,02/20/2022
Slug & Lettuce,150-156 High Street,Beckenham,,Bromley,,,E09000006,Copers Cope,E05000113,537316.0001221001,169484.00012210011,-0.025475747007425498,51.40724000296133,02/20/2022
Eden Park,422 Upper Elmers End Road,Eden Park,Beckenham,Bromley,,,E09000006,Kelsey and Eden Park,E05000120,537380.0001221001,167473.00012210011,-0.025334713488768593,51.38915100815641,02/20/2022
Coach & Horses,Burnhill Road,Beckenham,,Bromley,,,E09000006,Kelsey and Eden Park,E05000120,537372.0001221001,169313.00012210011,-0.024737252749806565,51.40568960989483,02/20/2022
Club Langley,2 Hawksbrook Lane,Eden Park,Beckenham,Bromley,,,E09000006,Kelsey and Eden Park,E05000120,537692.0001221001,167360.00012210011,-0.020896804511519707,51.38805981203122,02/20/2022
Elm Tree,116 Croydon Road,Elmers End,Beckenham,Bromley,,,E09000006,Clock House,E05000112,536087.0001221001,168453.00012210011,-0.043532482839179265,51.398270286470044,02/20/2022
Chancery,90 Bromley Road,Beckenham,,Bromley,,,E09000006,Copers Cope,E05000113,537949.0001221001,169407.00012210011,-0.016409375686100715,51.40639433582788,02/20/2022
Jolly Woodman,9 Chancery Lane,Beckenham,,Bromley,,,E09000006,Copers Cope,E05000113,537905.0001221001,169371.00012210011,-0.01705565045887548,51.40608149714292,02/20/2022
Railway Hotel,"Red Lodge Road,",West Wickham,,Bromley,,,E09000006,West Wickham,E05000127,538367.0001221001,166448.00012210011,-0.011556387821474405,51.37969922361342,02/20/2022
Wheatsheaf,135 High Street,West Wickham,,Bromley,,,E09000006,West Wickham,E05000127,537823.0001221001,166054.00012210011,-0.019521943941998552,51.37629058068045,02/20/2022
Swan,2-4 High Street,West Wickham,,Bromley,,,E09000006,West Wickham,E05000127,538172.0001221001,165988.00012210011,-0.014535811400837715,51.37561257512144,02/20/2022
Coney,35 Croydon Road,Coney Hall,,Bromley,,,E09000006,Hayes and Coney Hall,E05000119,539453.0001221001,165364.00012210011,0.003614600054790382,51.36969131371426,02/20/2022
Sovereign of the Seas,109-111 Queensway,Petts Wood,Orpington,Bromley,,,E09000006,Petts Wood and Knoll,E05000124,544252.0001221001,167644.00012210011,0.07344332775513626,51.38898227913842,02/20/2022
One Inn The Wood,209 Petts Wood Road,Petts Wood,Orpington,Bromley,,,E09000006,Petts Wood and Knoll,E05000124,544396.0001221001,167712.00012210011,0.07553935034173109,51.38955675132832,02/20/2022
Daylight Inn,Station Square,Petts Wood,Orpington,Bromley,,,E09000006,Petts Wood and Knoll,E05000124,544486.0001221001,167595.00012210011,0.07678447226481849,51.38848238814635,02/20/2022
Bull Inn,Main Road,St Paul's Cray,Orpington,Bromley,,,E09000006,Cray Valley East,E05000114,547397.0001221001,169336.00012210011,0.11931874965199797,51.40337918221182,02/20/2022
White Swan,21 Kent Road,St Mary Cray,Orpington,Bromley,,,E09000006,Cray Valley East,E05000114,547081.0001221001,167375.00012210011,0.11396579938946996,51.38583862049756,02/20/2022
Beech Tree,75 Wellington Road,St Mary Cray,Orpington,Bromley,,,E09000006,Cray Valley East,E05000114,547008.0001221001,167198.00012210011,0.11284407088011683,51.384266915031716,02/20/2022
Cricketers,93 Chislehurst Road,Orpington,,Bromley,,,E09000006,Petts Wood and Knoll,E05000124,546266.0001221001,166805.00012210011,0.10202568473757007,51.38092689939258,02/20/2022
White Hart,106 High St,Orpington,,Bromley,,,E09000006,Petts Wood and Knoll,E05000124,546417.0001221001,166595.00012210011,0.10410760437299825,51.37900077437545,02/20/2022
Harvest Moon,141-143 High Street,Orpington,,Bromley,,,E09000006,Orpington,E05000122,546346.0001221001,166405.00012210011,0.10300974892429333,51.377311625140244,02/20/2022
Maxwell,Station Road,Orpington,,Bromley,,,E09000006,Orpington,E05000122,545892.0001221001,165802.00012210011,0.09624280328015261,51.37200952863262,02/20/2022
Royal Oak,High Street,Green St Green,Orpington,Bromley,,,E09000006,Chelsfield and Pratts Bottom,E05000110,545578.0001221001,163448.00012210011,0.09077053197409987,51.35093538129413,02/20/2022
Queen's Head,73 High Street,Green St Green,Orpington,Bromley,,,E09000006,Chelsfield and Pratts Bottom,E05000110,545578.0001221001,163611.00012210011,0.09083723203920287,51.35240022027035,02/20/2022
Rose & Crown,Farnborough Way,Green St Green,Orpington,Bromley,,,E09000006,Darwin,E05000117,545515.0001221001,163315.00012210011,0.08981198510257535,51.34975628231271,02/20/2022
Chelsfield,1 Windsor Drive,Chelsfield,Orpington,Bromley,,,E09000006,Chelsfield and Pratts Bottom,E05000110,546687.0001221001,164023.00012210011,0.10692341896719293,51.35581746890152,02/20/2022
Woodman,50 High Street,Farnborough,Orpington,Bromley,,,E09000006,Farnborough and Crofton,E05000118,544217.0001221001,164272.00012210011,0.07157191937227897,51.35868763965581,02/20/2022
Change of Horses,87 High Street,Farnborough,Orpington,Bromley,,,E09000006,Farnborough and Crofton,E05000118,544059.0001221001,164302.00012210011,0.06931610832905291,51.35899733969604,02/20/2022
Bulls Head,Rushmore Hill,Pratts Bottom,Orpington,Bromley,,,E09000006,Chelsfield and Pratts Bottom,E05000110,547188.0001221001,162234.00012210011,0.11337424201032666,51.339610822967266,02/20/2022
Bo Peep,Hewitts Road,Chelsfield,Orpington,Bromley,,,E09000006,Chelsfield and Pratts Bottom,E05000110,548948.0001221001,163415.00012210011,0.13912036339644152,51.34976536999182,02/20/2022
Five Bells,Church Road,Chelsfield,Orpington,Bromley,,,E09000006,Chelsfield and Pratts Bottom,E05000110,548228.0001221001,164146.00012210011,0.12909234658657157,51.356522803866405,02/20/2022
Queen's Head,25 High Street,Downe,Orpington,Bromley,,,E09000006,Darwin,E05000117,543166.0001221001,161732.00012210011,0.05546363595096598,51.336126674774896,02/20/2022
George & Dragon,26 High Street,Downe,Orpington,Bromley,,,E09000006,Darwin,E05000117,543157.0001221001,161681.00012210011,0.05531400656886926,51.33567060597587,02/20/2022
Whyte Lyon (Ye Olde),Farnborough Common,Locksbottom,Orpington,Bromley,,,E09000006,Farnborough and Crofton,E05000118,543315.0001221001,164775.00012210011,0.058827099260945724,51.36343635913838,02/20/2022
British Queen,427 Crofton Road,Locksbottom,Orpington,Bromley,,,E09000006,Farnborough and Crofton,E05000118,543119.0001221001,165074.00012210011,0.05613373787722958,51.36617287607937,02/20/2022
Black Horse,318 Crofton Road,Locksbottom,Orpington,Bromley,,,E09000006,Farnborough and Crofton,E05000118,543266.0001221001,165250.00012210011,0.058315104082338996,51.3677175028892,02/20/2022
Buff,Pinewood Drive,Orpington,,Bromley,,,E09000006,Chelsfield and Pratts Bottom,E05000110,545381.0001221001,164258.00012210011,0.0882743270100575,51.358265093657785,02/20/2022
Queens Head,2 High Street,Chislehurst,,Bromley,,,E09000006,Chislehurst,E05000111,543886.0001221001,170825.00012210011,0.06947660157373575,51.4176621845578,02/20/2022
Gordon Arms,47 Park Road,Chislehurst,,Bromley,,,E09000006,Chislehurst,E05000111,543935.0001221001,170929.00012210011,0.07022310024646138,51.4185843665651,02/20/2022
Imperial Arms,Old Hill,Chislehurst,,Bromley,,,E09000006,Chislehurst,E05000111,543424.0001221001,169764.00012210011,0.06240715129695871,51.40824427176035,02/20/2022
Rambler's Rest,Mill Place,Chislehurst,,Bromley,,,E09000006,Chislehurst,E05000111,543505.0001221001,169759.00012210011,0.06356907939334942,51.40817884291488,02/20/2022
Bickley,Chislehurst Road,Chislehurst,,Bromley,,,E09000006,Chislehurst,E05000111,543081.0001221001,169633.00012210011,0.057425447554757265,51.40715365353225,02/20/2022
Tigers Head,Watts Lane,Chislehurst,,Bromley,,,E09000006,Chislehurst,E05000111,543992.0001221001,169860.00012210011,0.07060813593156609,51.40896304158773,02/20/2022
Crown Inn,School Road,Chislehurst,,Bromley,,,E09000006,Chislehurst,E05000111,544263.0001221001,169997.00012210011,0.07455811944973434,51.41012533834553,02/20/2022
Bull's Head Hotel,Royal Parade,Chislehurst,,Bromley,,,E09000006,Chislehurst,E05000111,544428.0001221001,170106.00012210011,0.07697361060866507,51.41106288427042,02/20/2022
Sydney Arms,Old Perry Street,Chislehurst,,Bromley,,,E09000006,Chislehurst,E05000111,545204.0001221001,170516.00012210011,0.08829301093517519,51.41454920275529,02/20/2022
Man on the Moon,"112 Headley Drive, New Addington",Croydon,,Croydon,,,E09000008,New Addington North,E05011470,538110.0001221001,163316.00012210011,-0.016464178378757435,51.351613543780736,02/20/2022
Keg & Grill,1 South End,Croydon,,Croydon,,,E09000008,South Croydon,E05011484,532449.0001221001,164807.00012210011,-0.09716294059798888,51.36636227368397,02/20/2022
Joker,73 South End,Croydon,,Croydon,,,E09000008,South Croydon,E05011484,532454.0001221001,164669.00012210011,-0.09714257261890803,51.3651207979905,02/20/2022
Obia Bar & Grill,49c South End,Croydon,,Croydon,,,E09000008,South Croydon,E05011484,532454.0001221001,164669.00012210011,-0.09714257261890803,51.3651207979905,02/20/2022
Surrey Cricketers,23 West Street,Croydon,,Croydon,,,E09000008,Fairfield,E05011468,532317.0001221001,164947.00012210011,-0.09900608802473779,51.36765133375529,02/20/2022
Apatura Lounge Restaurant,14 South End,Croydon,,Croydon,,,E09000008,Fairfield,E05011468,532419.0001221001,164822.00012210011,-0.09758809419184937,51.36650408673627,02/20/2022
Scream Lounge,20 South End,Croydon,,Croydon,,,E09000008,Fairfield,E05011468,532412.0001221001,164762.00012210011,-0.09771095197980939,51.36596645400432,02/20/2022
Treehouse,78 South End,Croydon,,Croydon,,,E09000008,Fairfield,E05011468,532417.0001221001,164678.00012210011,-0.09767045381416219,51.365210316861365,02/20/2022
Skylark,34-36 South End,Croydon,,Croydon,,,E09000008,Fairfield,E05011468,532417.0001221001,164678.00012210011,-0.09767045381416219,51.365210316861365,02/20/2022
Matthews Yard,1 Matthews Yard,Croydon,,Croydon,,,E09000008,Fairfield,E05011468,532270.0001221001,165389.00012210011,-0.09951642784834049,51.371634872541,02/20/2022
Milan Bar,16 High Street,Croydon,,Croydon,,,E09000008,Fairfield,E05011468,532289.0001221001,165482.00012210011,-0.09920896958993289,51.37246630638823,02/20/2022
Slug & Lettuce,10 Park Lane,Croydon,,Croydon,,,E09000008,Fairfield,E05011468,532529.0001221001,165577.00012210011,-0.09572714587060013,51.37326416500585,02/20/2022
George,17-21 George Street,Croydon,,Croydon,,,E09000008,Fairfield,E05011468,532440.0001221001,165613.00012210011,-0.09699178550829847,51.37360849369561,02/20/2022
Cronx,"Units 3 & 4, Boxpark Croydon, 99 George Street",Croydon,,Croydon,,,E09000008,Fairfield,E05011468,532709.0001221001,165693.00012210011,-0.09309898510388641,51.37426469042389,02/20/2022
Beatbox,"Units 22-26, Ground Floor, Boxpark Croydon",Croydon,,Croydon,,,E09000008,Fairfield,E05011468,532709.0001221001,165693.00012210011,-0.09309898510388641,51.37426469042389,02/20/2022
Green Dragon,58 High Street,Croydon,,Croydon,,,E09000008,Fairfield,E05011468,532312.0001221001,165268.00012210011,-0.09895837281817604,51.370537567951644,02/20/2022
Memory Box,80-88 High Street,Croydon,,Croydon,,,E09000008,Fairfield,E05011468,532312.0001221001,165268.00012210011,-0.09895837281817604,51.370537567951644,02/20/2022
Crown & Pepper,242 High Street,Croydon,,Croydon,,,E09000008,Fairfield,E05011468,532365.0001221001,165028.00012210011,-0.09828671524520169,51.36836815415396,02/20/2022
South Beats,282 High Street,Croydon,,Croydon,,,E09000008,Fairfield,E05011468,532396.0001221001,164935.00012210011,-0.09787623928169997,51.3675250658095,02/20/2022
Spreadeagle,39-41 Katharine Street,Croydon,,Croydon,,,E09000008,Fairfield,E05011468,532398.0001221001,165433.00012210011,-0.0976619905634286,51.37200049721405,02/20/2022
Ship,47 High Street,Croydon,,Croydon,,,E09000008,Fairfield,E05011468,532342.0001221001,165377.00012210011,-0.09848699750004501,51.37151024035866,02/20/2022
Dog & Bull,24 Surrey Street,Croydon,,Croydon,,,E09000008,Fairfield,E05011468,532235.0001221001,165465.00012210011,-0.09999073541036843,51.37232609517295,02/20/2022
Market Tavern,1-4 Surrey Street,Croydon,,Croydon,,,E09000008,Fairfield,E05011468,532235.0001221001,165465.00012210011,-0.09999073541036843,51.37232609517295,02/20/2022
Art & Craft CR0,46 Surrey Street,Croydon,,Croydon,,,E09000008,Fairfield,E05011468,532286.0001221001,165435.00012210011,-0.09926954726962481,51.37204458117182,02/20/2022
Mr Fox,34 Surrey Street,Croydon,,Croydon,,,E09000008,Fairfield,E05011468,532286.0001221001,165435.00012210011,-0.09926954726962481,51.37204458117182,02/20/2022
Royal Standard,1 Sheldon Street,Croydon,,Croydon,,,E09000008,Fairfield,E05011468,532216.0001221001,165124.00012210011,-0.10039044823764223,51.36926569485987,02/20/2022
Bulls Head,39 Laud Street,Croydon,,Croydon,,,E09000008,Fairfield,E05011468,532285.0001221001,165110.00012210011,-0.09940488956172615,51.369123794295504,02/20/2022
Bishop's Wine Bar,1129 Whitgift Centre,Croydon,,Croydon,,,E09000008,Fairfield,E05011468,532315.0001221001,165748.00012210011,-0.09873655073419113,51.37485098763334,02/20/2022
Luna,18 High Street,Croydon,,Croydon,,,E09000008,Fairfield,E05011468,532304.0001221001,165541.00012210011,-0.09897160107271723,51.372993088016834,02/20/2022
Dice,36 High Street,Croydon,,Croydon,,,E09000008,Fairfield,E05011468,532306.0001221001,165423.00012210011,-0.09898681843595974,51.37193206756915,02/20/2022
Alchemy,28-30 St George's Walk,Croydon,,Croydon,,,E09000008,Fairfield,E05011468,532479.0001221001,165481.00012210011,-0.09648094957343833,51.37241301279114,02/20/2022
Windmill,224 St James's Road,Croydon,,Croydon,,,E09000008,Fairfield,E05011468,532781.0001221001,166444.00012210011,-0.09178430610947516,51.3809976196436,02/20/2022
Two Brewers,221 Gloucester Road,Croydon,,Croydon,,,E09000008,Selhurst,E05011479,533008.0001221001,167177.00012210011,-0.08824943516496986,51.387532431581725,02/20/2022
Bedford Tavern,16 Sydenham Road,Croydon,,Croydon,,,E09000008,Fairfield,E05011468,532710.0001221001,166297.00012210011,-0.09285897826429204,51.379693033736714,02/20/2022
Olde Clock Tower,35 Whitehorse Road,Croydon,,Croydon,,,E09000008,Selhurst,E05011479,532466.0001221001,166825.00012210011,-0.09616640864657759,51.38449555020062,02/20/2022
Pawson's Arms,69 Pawson's Road,Croydon,,Croydon,,,E09000008,Selhurst,E05011479,532563.0001221001,167724.00012210011,-0.09443742355962295,51.392552842308255,02/20/2022
Lion Inn,182 Pawson's Road,Croydon,,Croydon,,,E09000008,Bensham Manor,E05011464,532359.0001221001,167576.00012210011,-0.09742333023236008,51.39127029340524,02/20/2022
Phoenix,12 Station Road,Croydon,,Croydon,,,E09000008,Fairfield,E05011468,532221.0001221001,166111.00012210011,-0.09995135080704194,51.378135442551645,02/20/2022
Old Fox & Hounds,1 London Road,Croydon,,Croydon,,,E09000008,Fairfield,E05011468,532068.0001221001,166107.00012210011,-0.10215018965612105,51.37813511210698,02/20/2022
Saints & Sinners,482 London Road,Croydon,,Croydon,,,E09000008,West Thornton,E05011488,531552.0001221001,167078.00012210011,-0.10920118816054723,51.38698208177818,02/20/2022
Golden Lion,144 Stanley Road,Croydon,,Croydon,,,E09000008,West Thornton,E05011488,531174.0001221001,166979.00012210011,-0.11466760054086196,51.38617979984965,02/20/2022
Wandle Arms,90 Waddon New Road,Croydon,,Croydon,,,E09000008,Waddon,E05011487,531764.0001221001,165584.00012210011,-0.1067101602092538,51.37350515471911,02/20/2022
Waddon,2 Stafford Road,Croydon,,Croydon,,,E09000008,Waddon,E05011487,531189.0001221001,164741.00012210011,-0.11527860094039676,51.3660615785176,02/20/2022
Hare & Hounds,325 Purley Way,Croydon,,Croydon,,,E09000008,Waddon,E05011487,531153.0001221001,165371.00012210011,-0.11556300203092343,51.37173223425914,02/20/2022
Plough,Croydon Road,Croydon,Beddington,Sutton,,,E09000029,Beddington North,E05000555,530142.0001221001,164783.00012210011,-0.1302962692819899,51.36667999766016,02/20/2022
Harvest Home,27 Beddington Lane,Croydon,,Sutton,,,E09000029,Beddington North,E05000555,530140.0001221001,165320.00012210011,-0.13012834325333733,51.37150696661924,02/20/2022
Frankie & Benny's,Valley Leisure Park Purley Way,Croydon,,Croydon,,,E09000008,Broad Green,E05011465,530710.0001221001,165916.00012210011,-0.1217239444170443,51.37673278739149,02/20/2022
Beach Road Cafe Bar,23 Hesterman Way,Croydon,,Croydon,,,E09000008,Broad Green,E05011465,530624.0001221001,166010.00012210011,-0.1229244685812439,51.377597443985955,02/20/2022
Cricketers Inn,"36 Addington Village Road, Addington",Croydon,,Croydon,,,E09000008,Selsdon & Addington Village,E05011480,537258.0001221001,164012.00012210011,-0.028424216589638632,51.35807525164485,02/20/2022
Surprise,107 Upper Shirley Road,Croydon,,Croydon,,,E09000008,Shirly South,E05011483,535599.0001221001,164986.00012210011,-0.05186774629259112,51.36722756696832,02/20/2022
Coombe Lodge,104 Coombe Road,Croydon,,Croydon,,,E09000008,South Croydon,E05011484,534356.0001221001,164372.00012210011,-0.0699468847131491,51.362004653107505,02/20/2022
Orchard,112 Cherry Orchard Road,Croydon,,Croydon,,,E09000008,Addiscombe West,E05011463,533053.0001221001,166054.00012210011,-0.0880237830322622,51.377428722218546,02/20/2022
Oval Tavern,131 Oval Road,Croydon,,Croydon,,,E09000008,Addiscombe West,E05011463,533129.0001221001,166074.00012210011,-0.08692481861811491,51.37759065566114,02/20/2022
Porter & Sorter,Station Road,Croydon,,Croydon,,,E09000008,Addiscombe West,E05011463,532903.0001221001,165831.00012210011,-0.09026142966152181,51.37545960729291,02/20/2022
Alma Tavern,127-129 Lower Addiscombe Road,Croydon,,Croydon,,,E09000008,Addiscombe West,E05011463,533582.0001221001,166248.00012210011,-0.08035365154164033,51.3790480766909,02/20/2022
Cricketers,107 Addiscombe Road,Croydon,,Croydon,,,E09000008,Addiscombe West,E05011463,533466.0001221001,165763.00012210011,-0.08220185172805358,51.37471635388096,02/20/2022
Builders Arms,65 Leslie Park Road,Croydon,,Croydon,,,E09000008,Addiscombe West,E05011463,533242.0001221001,166214.00012210011,-0.08524945705525501,51.3788224145571,02/20/2022
Claret & Ale,"5 Bingham Corner, Lower Addiscombe Road",Addiscombe,,Croydon,,,E09000008,Addiscombe East,E05011462,534172.0001221001,166310.00012210011,-0.0718567544549768,51.379466142790584,02/20/2022
Cricketers,47 Shirley Road,Addiscombe,,Croydon,,,E09000008,Shirley North,E05011482,534911.0001221001,166508.00012210011,-0.06116812267940573,51.381070498013116,02/20/2022
Orchard,116 Orchard Way,Croydon,,Croydon,,,E09000008,Shirley North,E05011482,536469.0001221001,167059.00012210011,-0.03858006537384021,51.38565007261516,02/20/2022
Crown,"28 Wickham Road, Shirley",Croydon,,Croydon,,,E09000008,Shirley North,E05011482,535503.0001221001,165640.00012210011,-0.052996740924284906,51.37312831597516,02/20/2022
Shirley Inn,158 Wickham Road,Croydon,,Croydon,,,E09000008,Shirley North,E05011482,535784.0001221001,165718.00012210011,-0.048931836964370826,51.373762199188405,02/20/2022
Forestdale Arms,"Forestdale Centre, Featherbed Lane",Croydon,,Croydon,,,E09000008,Selsdon Vale & Forestdale,E05011481,536723.0001221001,163137.00012210011,-0.03644043676731642,51.35034026784271,02/20/2022
Randall Tavern,"Fieldway, New Addington",Croydon,,Croydon,,,E09000008,New Addington North,E05011470,537953.0001221001,163597.00012210011,-0.018608590735156878,51.35417713323066,02/20/2022
Toby Carvery,"415 Brighton Road, Croydon",South Croydon,,Croydon,,,E09000008,South Croydon,E05011484,532572.0001221001,163549.00012210011,-0.09586594495824459,51.35502698160167,02/20/2022
Purley Arms,345 Brighton Road,South Croydon,,Croydon,,,E09000008,South Croydon,E05011484,532488.0001221001,163068.00012210011,-0.0972508699211794,51.35072346187518,02/20/2022
Whelan's,13 Selsdon Road,South Croydon,,Croydon,,,E09000008,South Croydon,E05011484,532604.0001221001,164351.00012210011,-0.09510753965602257,51.362227688645376,02/20/2022
Crown & Sceptre,32 Junction Road,South Croydon,,Croydon,,,E09000008,South Croydon,E05011484,532624.0001221001,163987.00012210011,-0.094956174201944,51.35895147906233,02/20/2022
Croham Arms,1 Croham Road,South Croydon,,Croydon,,,E09000008,South Croydon,E05011484,532726.0001221001,164306.00012210011,-0.09337281720650731,51.36179474152224,02/20/2022
Sir Julian Huxley,152 Addington Road,Selsdon,,Croydon,,,E09000008,Selsdon Vale & Forestdale,E05011481,535082.0001221001,162290.00012210011,-0.060314734568258366,51.34312030881045,02/20/2022
Golden Ark,186 Addington Road,Selsdon,,Croydon,,,E09000008,Selsdon Vale & Forestdale,E05011481,535082.0001221001,162290.00012210011,-0.060314734568258366,51.34312030881045,02/20/2022
Fox,Coulsdon Corner Fox Lane,Coulsdon,,Croydon,,,E09000008,Old Coulsdon,E05011474,531949.0001221001,156901.00012210011,-0.10727087728347702,51.29542075360529,02/20/2022
Gardeners Arms,107 London Road,Mitcham,,Merton,,,E09000024,Figge's Marsh,E05000460,527946.0001221001,169510.00012210011,-0.16012414036102177,51.40966554089335,02/20/2022
White Lion of Mortimer,223 London Road,Mitcham,,Merton,,,E09000024,Figge's Marsh,E05000460,527830.0001221001,169160.00012210011,-0.16191748304350778,51.406545901329636,02/20/2022
Kings Arms,268 London Road,Mitcham,,Merton,,,E09000024,Figge's Marsh,E05000460,527782.0001221001,169109.00012210011,-0.162625675849141,51.40609833137794,02/20/2022
Crown Inn,407 London Road,Mitcham,,Merton,,,E09000024,Cricket Green,E05000458,527250.0001221001,168134.00012210011,-0.17062085593517648,51.397454603280636,02/20/2022
Surrey Arms,Morden Road,Mitcham,,Merton,,,E09000024,Ravensbury,E05000468,526625.0001221001,168359.00012210011,-0.17952083036246266,51.39961680336345,02/20/2022
Windmill,40 Commonside West,Mitcham,,Merton,,,E09000024,Figge's Marsh,E05000460,527975.0001221001,168713.00012210011,-0.15999495779950249,51.40249555229793,02/20/2022
Park Place,54 Commonside West,Mitcham,,Merton,,,E09000024,Cricket Green,E05000458,528062.0001221001,168414.00012210011,-0.15885271997514797,51.3997884972756,02/20/2022
Crown of Mitcham,Carshalton Road,Mitcham,,Merton,,,E09000024,Cricket Green,E05000458,528187.0001221001,167282.00012210011,-0.15746550033467158,51.389585827366616,02/20/2022
Ravensbury,260 Croydon Road,Mitcham,,Merton,,,E09000024,Cricket Green,E05000458,528248.0001221001,168123.00012210011,-0.15628527410515006,51.397130959736465,02/20/2022
Tudor Rose,270 Coulsdon Road,Coulsdon,,Croydon,,,E09000008,Old Coulsdon,E05011474,531210.0001221001,157869.00012210011,-0.11750926659973933,51.304291907909494,02/20/2022
Coulsdon Manor Hotel,Coulsdon Court Road,Coulsdon,,Croydon,,,E09000008,Old Coulsdon,E05011474,530757.0001221001,159244.00012210011,-0.12350058773908727,51.31675463413928,02/20/2022
Pembroke,12-16 Chipstead Valley Road,Coulsdon,,Croydon,,,E09000008,Coulsdon Town,E05011466,529763.0001221001,159615.00012210011,-0.13762233547772804,51.32031681525807,02/20/2022
Smugglers Inn,320 Chipstead Valley Road,Coulsdon,,Croydon,,,E09000008,Coulsdon Town,E05011466,529002.0001221001,159409.00012210011,-0.14861274217668854,51.31863838345335,02/20/2022
Plough on the Pond,774 London Road,Thornton Heath,,Croydon,,,E09000008,West Thornton,E05011488,531301.0001221001,167839.00012210011,-0.11252521034484841,51.393879928860926,02/20/2022
Railway Telegraph,19 Brigstock Road,Thornton Heath,,Croydon,,,E09000008,Bensham Manor,E05011464,532164.0001221001,168239.00012210011,-0.09997775986668893,51.39727461263879,02/20/2022
Welcome Inn,300 Parchmore Road,Thornton Heath,,Croydon,,,E09000008,Thornton Heath,E05011486,531934.0001221001,169240.00012210011,-0.10291004217391797,51.40632487043525,02/20/2022
Prince George,2 High Street,Thornton Heath,,Croydon,,,E09000008,Thornton Heath,E05011486,532714.0001221001,168302.00012210011,-0.09205196027563932,51.397712415977715,02/20/2022
Elliotts,5 High Street,Purley,,Croydon,,,E09000008,Purley & Woodcote,E05011476,531350.0001221001,161609.00012210011,-0.1141233680543093,51.3378743950102,02/20/2022
Jolly Farmers,7 Purley Road,Purley,,Croydon,,,E09000008,Purley & Woodcote,E05011476,531313.0001221001,161566.00012210011,-0.1146701513531932,51.33749646491159,02/20/2022
Foxley Hatch,8-9 Russell Hill Road,Purley,,Croydon,,,E09000008,Purley & Woodcote,E05011476,531213.0001221001,161702.00012210011,-0.11605494758909668,51.33874191074738,02/20/2022
Pear Tree,908 Brighton Road,Purley,,Croydon,,,E09000008,Purley & Woodcote,E05011476,531350.0001221001,161737.00012210011,-0.11407614360735835,51.339024843583914,02/20/2022
Kenley Hotel,62 Godstone Road,Kenley,,Croydon,,,E09000008,Kenley,E05011469,532447.0001221001,160219.00012210011,-0.09889920738833415,51.32512678302251,02/20/2022
Wattenden Arms,5 Old Lodge Lane,Kenley,,Croydon,,,E09000008,Kenley,E05011469,532331.0001221001,158198.00012210011,-0.10131348218963195,51.306989352533286,02/20/2022
Whistler's Bar,Croydon Park Hotel 7 Altyre Road,Croydon,,Croydon,,,E09000008,Addiscombe West,E05011463,532952.0001221001,165507.00012210011,-0.08967899052183233,51.372536118944325,02/20/2022
Alma,10 Alma Road,Sidcup,Sidcup,Bexley,,,E09000004,Sidcup,E05011230,546306.0001221001,172447.00012210011,0.10492768288846303,51.43161889528047,02/20/2022
White Cross,146 Northcray Road,Bexley,North Cray,Bexley,,,E09000004,St. Mary's & St. James,E05011229,548778.0001221001,172309.00012210011,0.14040831462780617,51.429735011883004,02/20/2022
Seven Stars,400 Footscray  High Street,Sidcup,Foots Cray,Bexley,,,E09000004,Sidcup,E05011230,547419.0001221001,170970.00012210011,0.12031423376728125,51.41805737714049,02/20/2022
Star at Sidcup Place,"Sidcup Place, Chislehurst Road",Sidcup,Sidcup,Bexley,,,E09000004,Sidcup,E05011230,546275.0001221001,171656.00012210011,0.10415534287891488,51.42451854132635,02/20/2022
Tailor's Chalk,47-49 High Street,Sidcup,Sidcup,Bexley,,,E09000004,Sidcup,E05011230,546348.0001221001,171784.00012210011,0.1052575587788783,51.42564997132867,02/20/2022
Hopper's Hut,1 Invicta Parade. Sidcup High Street,Sidcup,Sidcup,Bexley,,,E09000004,Sidcup,E05011230,546569.0001221001,171603.00012210011,0.1083595108368409,51.42396628987757,02/20/2022
Hill Top Tap,"7-8 Elm Parade, Main Road",Sidcup,Sidcup,Bexley,,,E09000004,Sidcup,E05011230,546106.0001221001,171788.00012210011,0.1017804891449892,51.42574836633657,02/20/2022
Horse & Groom,136 Main Road,Sidcup,Sidcup,Bexley,,,E09000004,Longlands,E05011227,545665.0001221001,171879.00012210011,0.09547855280343366,51.4266796830634,02/20/2022
Charcoal,299 Main Road,Sidcup,Sidcup,Bexley,,,E09000004,Longlands,E05011227,545091.0001221001,172225.00012210011,0.08736885298731673,51.42993633017419,02/20/2022
Bear & Ragged Staff,2 London Road,Crayford,Crayford,Bexley,,,E09000004,Crayford,E05011222,551329.0001221001,174802.00012210011,0.17814612296912488,51.451461752901466,02/20/2022
One Bell,170 Old Road,Crayford,Crayford,Bexley,,,E09000004,Crayford,E05011222,551190.0001221001,175002.00012210011,0.17623247415210258,51.45329610791996,02/20/2022
Duke's Head,53 Crayford High Street,Crayford,Crayford,Bexley,,,E09000004,Crayford,E05011222,551302.0001221001,174965.00012210011,0.1778275255858089,51.45293370015023,02/20/2022
Crayford Arms,37 Crayford High Street,Crayford,Crayford,Bexley,,,E09000004,Crayford,E05011222,551388.0001221001,174840.00012210011,0.17901093969755144,51.4517874499956,02/20/2022
Penny Farthing,3 Waterside,Crayford,Dartford,Bexley,,,E09000004,Crayford,E05011222,551463.0001221001,174841.00012210011,0.18009004437596002,51.45177637569627,02/20/2022
Hackney Carriage,165 Station Road,Sidcup,,Bexley,,,E09000004,Blackfen & Lamorbey,E05011220,546201.0001221001,172789.00012210011,0.10355933251281112,51.43471939951762,02/20/2022
Iron Horse,122 Station Road,Sidcup,Sidcup,Bexley,,,E09000004,Blackfen & Lamorbey,E05011220,546245.0001221001,172743.00012210011,0.10417295164661387,51.434294661113015,02/20/2022
Halfway House,188c Halfway Street,Sidcup,Halfway,Bexley,,,E09000004,Blackfen & Lamorbey,E05011220,545158.0001221001,173413.00012210011,0.08881913638992157,51.440595280696485,02/20/2022
Black Boy,Southspring,Sidcup,Avery Hill,Greenwich,,,E09000011,Eltham South,E05000219,544977.0001221001,173840.00012210011,0.08639133001100892,51.44447893291986,02/20/2022
Olde Black Horse,43 Halfway Street,Sidcup,Lamorbey,Bexley,,,E09000004,Blackfen & Lamorbey,E05011220,545920.0001221001,173013.00012210011,0.0996115102003635,51.43680484319518,02/20/2022
George Staples,273 Blackfen Road,Blackfen,,Bexley,,,E09000004,Blackfen & Lamorbey,E05011220,546055.0001221001,174561.00012210011,0.10219148869382735,51.450681208906566,02/20/2022
Jolly Fenman,64-68 Blackfen Road,Sidcup,Blackfen,Bexley,,,E09000004,Blackfen & Lamorbey,E05011220,545470.0001221001,174579.00012210011,0.09378495437401017,51.45099358296937,02/20/2022
Hangar,37 The Oval,Sidcup,Blackfen,Bexley,,,E09000004,Blendon & Penhill,E05011221,546203.0001221001,173888.00012210011,0.10404202439230036,51.444595082232915,02/20/2022
Broken Drum,308 Westwood Lane,Blackfen,,Bexley,,,E09000004,Blackfen & Lamorbey,E05011220,546236.0001221001,174625.00012210011,0.10482121828344543,51.451209622482416,02/20/2022
Wings Sports Bar,Welling United FC.  Park View Road,Welling,Welling,Bexley,,,E09000004,Falconwood & Welling,E05011226,547097.0001221001,175619.00012210011,0.11761824831000817,51.45991908066195,02/20/2022
"Guy, Earl Of Warwick",Park View Road,Welling,Welling,Bexley,,,E09000004,Falconwood & Welling,E05011226,547058.0001221001,175684.00012210011,0.11708425069186001,51.46051333312792,02/20/2022
Wrong 'Un,234-236 Broadway,Bexleyheath,,Bexley,,,E09000004,Bexleyheath,E05011219,548592.0001221001,175371.00012210011,0.13902010213724017,51.45729995126872,02/20/2022
Rose & Crown,15 Welling High Street,Welling,Welling,Bexley,,,E09000004,Falconwood & Welling,E05011226,546856.0001221001,175788.00012210011,0.11422153903621564,51.46150037461125,02/20/2022
Door Hinge,"11, Welling High Street",Welling,,Bexley,,,E09000004,Falconwood & Welling,E05011226,546856.0001221001,175788.00012210011,0.11422153903621564,51.46150037461125,02/20/2022
Nags Head,37 Welling High Street,Welling,Welling,Bexley,,,E09000004,Falconwood & Welling,E05011226,546856.0001221001,175788.00012210011,0.11422153903621564,51.46150037461125,02/20/2022
Foresters Arms,344 Upper Wickham Lane,Welling,East Wickham,Bexley,,,E09000004,East Wickham,E05011224,546596.0001221001,177193.00012210011,0.11106399982778917,51.474193743515265,02/20/2022
Green Man,168 Wickham Street,Welling,East Wickham,Bexley,,,E09000004,East Wickham,E05011224,545422.0001221001,176290.00012210011,0.09379829171320532,51.46638192313169,02/20/2022
New Cross Turnpike,55 Bellegrove Road,Welling,Welling,Bexley,,,E09000004,Falconwood & Welling,E05011226,546282.0001221001,175860.00012210011,0.1059937191596163,51.462296059841904,02/20/2022
Plough & Harrow,143 Bellegrove Road,Welling,Welling,Bexley,,,E09000004,Falconwood & Welling,E05011226,546007.0001221001,175924.00012210011,0.10206389902056455,51.46294221330475,02/20/2022
We Anchor In Hope,320 Bellegrove Road,Welling,Welling,Bexley,,,E09000004,East Wickham,E05011224,544966.0001221001,176211.00012210011,0.08720505248535329,51.46578899337048,02/20/2022
Prince of Wales,13a Woolwich Road,Belvedere,Upper Belvedere,Bexley,,,E09000004,Belvedere,E05011218,548844.0001221001,178248.00012210011,0.1438568987942112,51.48308719817243,02/20/2022
Eardley Arms,44 Woolwich Road,Belvedere,Upper Belvedere,Bexley,,,E09000004,Belvedere,E05011218,548741.0001221001,178290.00012210011,0.14239215952200085,51.48349172118369,02/20/2022
Royal Standard,39 Nuxley Road,Belvedere,Upper Belvedere,Bexley,,,E09000004,Belvedere,E05011218,549092.0001221001,178067.00012210011,0.14734981662879185,51.48139536413972,02/20/2022
Fox,79 Nuxley Road,Belvedere,Upper Belvedere,Bexley,,,E09000004,Belvedere,E05011218,549015.0001221001,177977.00012210011,0.1462036548880345,51.480606898387435,02/20/2022
Village Inn,104 Nuxley Road,Belvedere,Upper Belvedere,Bexley,,,E09000004,Belvedere,E05011218,548938.0001221001,177850.00012210011,0.14504192840157304,51.47948593033603,02/20/2022
Victoria,2 Victoria Street,Belvedere,Upper Belvedere,Bexley,,,E09000004,Belvedere,E05011218,548829.0001221001,178089.00012210011,0.14357399262555284,51.48166233471371,02/20/2022
Halfway House,165 Lower Road,Belvedere,Belvedere,Bexley,,,E09000004,Belvedere,E05011218,550152.0001221001,179052.00012210011,0.16302412557744728,51.489966250769925,02/20/2022
Morgan,1 Clydesdale Way,Belvedere,Belvedere,Bexley,,,E09000004,Belvedere,E05011218,549782.0001221001,179765.00012210011,0.15800077804981685,51.49647150957895,02/20/2022
Great Harry,99 Parsonage Manor Way,Belvedere,Belvedere,Bexley,,,E09000004,Northumberland Heath,E05011228,549289.0001221001,177584.00012210011,0.14998085661897906,51.47700305953357,02/20/2022
Kings Head,65 Bexley High Street,Bexley,Bexley,Bexley,,,E09000004,St. Mary's & St. James,E05011229,549520.0001221001,173613.00012210011,0.15162579102237658,51.44125776949289,02/20/2022
Tanyard Lane,61-63 Bexley High Street,Bexley,Bexley,Bexley,,,E09000004,St. Mary's & St. James,E05011229,549520.0001221001,173613.00012210011,0.15162579102237658,51.44125776949289,02/20/2022
Railway Tavern,38 Bexley High Street,Bexley,Bexley,Bexley,,,E09000004,St. Mary's & St. James,E05011229,549457.0001221001,173558.00012210011,0.15069666906761353,51.440780154392684,02/20/2022
George,74 Bexley High Street,Bexley,Bexley,Bexley,,,E09000004,St. Mary's & St. James,E05011229,549526.0001221001,173589.00012210011,0.1517019277214248,51.44104051539893,02/20/2022
Three Blackbirds,118 Blendon Road,Bexley,Blendon,Bexley,,,E09000004,Blendon & Penhill,E05011221,547592.0001221001,174277.00012210011,0.12417901688565038,51.44773047555312,02/20/2022
Anchor,23-31 Bridgen Road,Bexley,Bridgen,Bexley,,,E09000004,Blendon & Penhill,E05011221,548385.0001221001,173969.00012210011,0.13545439708979784,51.444755421669015,02/20/2022
Millers Arms,81 Bexley High Street,Bexley,Bexley,Bexley,,,E09000004,St. Mary's & St. James,E05011229,549647.0001221001,173530.00012210011,0.15341686969921436,51.440478368257175,02/20/2022
Traders,"Holiday Inn, Southwold Road",Bexley,Bexley,Bexley,,,E09000004,St. Mary's & St. James,E05011229,549790.0001221001,174133.00012210011,0.1557282978857787,51.44585925943698,02/20/2022
Black Horse,63 Albert Road,Bexley,Bexley,Bexley,,,E09000004,St. Mary's & St. James,E05011229,549503.0001221001,174010.00012210011,0.15154905414050465,51.4448297982578,02/20/2022
Miller & Carter,Hall Place,Bexley,Hall Place,Bexley,,,E09000004,Crayford,E05011222,550211.0001221001,174329.00012210011,0.16186577048756273,51.44750902865697,02/20/2022
Albany,13 Steynton Avenue,Bexley,Albany Park,Bexley,,,E09000004,Blendon & Penhill,E05011221,547991.0001221001,172957.00012210011,0.12936531019405667,51.435764309277275,02/20/2022
Kings Arms,156 Broadway,Bexleyheath,Bexleyheath,Bexley,,,E09000004,Bexleyheath,E05011219,549015.0001221001,175286.00012210011,0.14506889536414116,51.456424914975536,02/20/2022
Carved,146 Broadway,Bexleyheath,Bexleyheath,Bexley,,,E09000004,Bexleyheath,E05011219,549015.0001221001,175286.00012210011,0.14506889536414116,51.456424914975536,02/20/2022
Furze Wren,"6 Market Place, Broadway Square",Bexleyheath,,Bexley,,,E09000004,Bexleyheath,E05011219,549235.0001221001,175259.00012210011,0.1482220067529583,51.45612432666537,02/20/2022
Rose,179 Broadway,Bexleyheath,Bexleyheath,Bexley,,,E09000004,Bexleyheath,E05011219,548829.0001221001,175283.00012210011,0.142392178810759,51.45644689176351,02/20/2022
Brewers Fayre,51 Albion Road,Bexleyheath,Bexleyheath,Bexley,,,E09000004,Bexleyheath,E05011219,548921.0001221001,175088.00012210011,0.14363340607694322,51.4546703709201,02/20/2022
Marriott Hotel,1 Broadway,Bexleyheath,Bexleyheath,Bexley,,,E09000004,Bexleyheath,E05011219,549627.0001221001,175095.00012210011,0.1537911367904935,51.45454710303774,02/20/2022
Prince Albert,2 Broadway,Bexleyheath,Bexleyheath,Bexley,,,E09000004,Bexleyheath,E05011219,549662.0001221001,175141.00012210011,0.15431402438363787,51.45495121654946,02/20/2022
Twin Palace,6-8 Broadway,Bexleyheath,Bexleyheath,Bexley,,,E09000004,Bexleyheath,E05011219,549662.0001221001,175141.00012210011,0.15431402438363787,51.45495121654946,02/20/2022
Frankie & Benny's,28-30 Broadway,Bexleyheath,Bexleyheath,Bexley,,,E09000004,Bexleyheath,E05011219,549471.0001221001,175204.00012210011,0.1515933818655896,51.455567814872985,02/20/2022
Coach House,40 Watling Street,Bexleyheath,Bexleyheath,Bexley,,,E09000004,Bexleyheath,E05011219,549804.0001221001,175099.00012210011,0.15633870155598537,51.45453623523961,02/20/2022
Golden Lion,258 Broadway,Bexleyheath,Bexleyheath,Bexley,,,E09000004,Crook Log,E05011223,548461.0001221001,175393.00012210011,0.13714497109154405,51.457532025096995,02/20/2022
Crook Log,Crook Log,Bexleyheath,Crook Log,Bexley,,,E09000004,Crook Log,E05011223,547882.0001221001,175478.00012210011,0.12885182218001398,51.45844743632449,02/20/2022
Danson Stables,Danson Park,Bexleyheath,Crook Log,Bexley,,,E09000004,Crook Log,E05011223,547570.0001221001,175113.00012210011,0.12421139229272797,51.45524883752123,02/20/2022
Royal Oak,66 Mount Road,Bexleyheath,Bexleyheath,Bexley,,,E09000004,Crook Log,E05011223,548053.0001221001,174723.00012210011,0.13099556881403118,51.45161803801964,02/20/2022
Celebrations @ Bexley,59 Lion Road,Bexleyheath,Bexleyheath,Bexley,,,E09000004,Crook Log,E05011223,548510.0001221001,175208.00012210011,0.13777211959618785,51.4558567036773,02/20/2022
Robin Hood & Little John,78 Lion Road,Bexleyheath,,Bexley,,,E09000004,Crook Log,E05011223,548502.0001221001,175006.00012210011,0.1375722260438761,51.45404356744564,02/20/2022
Volunteer,46 Church Road,Bexleyheath,Bexleyheath,Bexley,,,E09000004,Bexleyheath,E05011219,548612.0001221001,175653.00012210011,0.13942631777110406,51.4598288361026,02/20/2022
William Camden,91 Avenue Road,Bexleyheath,Bexleyheath,Bexley,,,E09000004,Crook Log,E05011223,548192.0001221001,175847.00012210011,0.13346580731395838,51.46168231126248,02/20/2022
Jolly Millers,111 Mayplace Road West,Bexleyheath,Bexleyheath,Bexley,,,E09000004,Bexleyheath,E05011219,549617.0001221001,175468.00012210011,0.15380511471798203,51.457901604547835,02/20/2022
Kentish Belle,8 Pickford Lane,Bexleyheath,Bexleyheath,Bexley,,,E09000004,Crook Log,E05011223,548269.0001221001,176085.00012210011,0.13467334710390014,51.46380088688209,02/20/2022
Yacht,167 Long Lane,Bexleyheath,Bexleyheath,Bexley,,,E09000004,Bexleyheath,E05011219,549138.0001221001,176294.00012210011,0.1472633680389667,51.465450658417566,02/20/2022
Traveller's Home,60-66 Long Lane,Bexleyheath,Bexleyheath,Bexley,,,E09000004,Bexleyheath,E05011219,549587.0001221001,175927.00012210011,0.15356778029960202,51.46203420479322,02/20/2022
Earl Haig,The Pantiles,Bexleyheath,Bexleyheath,Bexley,,,E09000004,West Heath,E05011233,548761.0001221001,177064.00012210011,0.1421636243684676,51.47246931940072,02/20/2022
Red Barn,Barnehust Road,Bexleyheath,Barnehurst,Bexley,,,E09000004,Barnehurst,E05011217,550019.0001221001,176290.00012210011,0.15993649497109874,51.4651818321922,02/20/2022
Bird & Barrel,100 Barnehurst Road,Bexleyheath,Barnehurst,Bexley,,,E09000004,Barnehurst,E05011217,550019.0001221001,176290.00012210011,0.15993649497109874,51.4651818321922,02/20/2022
Ship,110 West Street,Erith,Erith,Bexley,,,E09000004,Erith,E05011225,550913.0001221001,178529.00012210011,0.17375470024291398,51.48506392721511,02/20/2022
Duchess Of Kent,143 Brook Street,Erith,Northumberland Heath,Bexley,,,E09000004,Northumberland Heath,E05011228,549909.0001221001,177228.00012210011,0.1587518860843928,51.47364000847667,02/20/2022
Brewer's Arms,22 Brook Street,Erith,Northumberland Heath,Bexley,,,E09000004,Northumberland Heath,E05011228,550113.0001221001,177028.00012210011,0.16160234519266103,51.47178868309721,02/20/2022
Running Horses,23 Erith High Street,Erith,Erith,Bexley,,,E09000004,Erith,E05011225,551543.0001221001,178111.00012210011,0.18264276492875484,51.48113929206526,02/20/2022
Corner Pin,Slade Green Road,Erith,Slade Green,Bexley,,,E09000004,Slade Green & Northend,E05011231,552395.0001221001,177014.00012210011,0.19443100802030755,51.471052773097135,02/20/2022
Royal Oak,270 Bexley Road,Erith,Northumberland Heath,Bexley,,,E09000004,Northumberland Heath,E05011228,550243.0001221001,177060.00012210011,0.1634864971374343,51.472041729885035,02/20/2022
Pepper's Ghost,777 High Road,Leyton,London,Waltham Forest,,,E09000031,Leyton,E05000604,538090.0001221001,187892.00012210011,-0.0071508895355716735,51.57248653507391,02/20/2022
Lion & Key Hotel,475 High Road,Leyton,London,Waltham Forest,,,E09000031,Leyton,E05000604,537940.0001221001,186918.00012210011,-0.009696609254007359,51.56376995158842,02/20/2022
Coach & Horses,391 High Road,Leyton,London,Waltham Forest,,,E09000031,Leyton,E05000604,538027.0001221001,186556.00012210011,-0.008584286473099537,51.56049537698961,02/20/2022
Leyton Technical,"265B High Road, Leyton",Leyton,London,Waltham Forest,,,E09000031,Leyton,E05000604,538170.0001221001,186372.00012210011,-0.006594789358807473,51.558806756372924,02/20/2022
William the Fourth,816 High Road Leyton,Leyton,London,Waltham Forest,,,E09000031,Forest,E05000595,537919.0001221001,188072.00012210011,-0.009546396796467634,51.57414605321714,02/20/2022
Signature Brewery Tap,"Unit 25, Leyton Business Centre, Etloe Road",Leyton,,Waltham Forest,,,E09000031,Leyton,E05000604,537192.0001221001,186895.00012210011,-0.02049135013889171,51.56374573940831,02/20/2022
Bootlaces,596 Lea Bridge Road,Leyton,London,Waltham Forest,,,E09000031,Lea Bridge,E05000603,537738.0001221001,188039.00012210011,-0.012169845492071894,51.57389374207511,02/20/2022
Drum,557-559 Lea Bridge Road,Leyton,London,Waltham Forest,,,E09000031,Lea Bridge,E05000603,537753.0001221001,188124.00012210011,-0.011920168188693151,51.57465396930018,02/20/2022
Hare & Hounds,282 Lea Bridge Road,Leyton,London,Waltham Forest,,,E09000031,Lea Bridge,E05000603,536776.0001221001,187428.00012210011,-0.026282399827841554,51.56863690748335,02/20/2022
George Tavern,373 Commercial Road,London,Stepney,Tower Hamlets,,,E09000030,Stepney Green,E05009334,535205.0001221001,181288.00012210011,-0.05129733874509579,51.5138342630504,02/20/2022
Peacock,145 Aylward Street,London,Stepney,Tower Hamlets,,,E09000030,Stepney Green,E05009334,535657.0001221001,181468.00012210011,-0.04471747464950038,51.51534359678995,02/20/2022
Walnut Tree,857-861 High Road,Leytonstone,London,Waltham Forest,,,E09000031,Leytonstone,E05000605,539554.0001221001,187546.00012210011,0.0138254358005442,51.56901654808403,02/20/2022
Sir Alfred Hitchcock Hotel,145 Whipps Cross Road,Leytonstone,London,Waltham Forest,,,E09000031,Forest,E05000595,539509.0001221001,188307.00012210011,0.013478743155337848,51.5758666701219,02/20/2022
Eagle,73 Hollybush Hill,Wanstead,Snaresbrook,Redbridge,,,E09000026,Wanstead Village,E05011255,540101.0001221001,189077.00012210011,0.022324368896540936,51.582639647872355,02/20/2022
Cuckfield,31 High Street,Wanstead,London,Redbridge,,,E09000026,Wanstead Village,E05011255,540366.0001221001,188696.00012210011,0.02599468345353044,51.579149744629746,02/20/2022
Duke,79 Nightingale Lane,Wanstead,London,Redbridge,,,E09000026,Wanstead Village,E05011255,540614.0001221001,188989.00012210011,0.029689160856668815,51.58172103460679,02/20/2022
Nightingale on the Green,51 Nightingale Lane,Wanstead,London,Redbridge,,,E09000026,Wanstead Village,E05011255,540614.0001221001,188989.00012210011,0.029689160856668815,51.58172103460679,02/20/2022
Palm Tree,127 Grove Road,Bow,London,Tower Hamlets,,,E09000030,Bow West,E05009320,536129.0001221001,182960.00012210011,-0.03734207926270291,51.528638933320316,02/20/2022
Luppolo,36-38 High Street Wanstead,Wanstead,London,Redbridge,,,E09000026,Wanstead Village,E05011255,540581.0001221001,188321.00012210011,0.02894570101750716,51.575726124468325,02/20/2022
George,159 High Street Wanstead,Wanstead,London,Redbridge,,,E09000026,Wanstead Village,E05011255,540622.0001221001,188357.00012210011,0.029551451979869636,51.5760394195052,02/20/2022
Manor House,129 High St,Wanstead,,Redbridge,,,E09000026,Wanstead Village,E05011255,540622.0001221001,188357.00012210011,0.029551451979869636,51.5760394195052,02/20/2022
Red Lion,640 High Road Leytonstone,Leytonstone,London,Waltham Forest,,,E09000031,Leytonstone,E05000605,539510.0001221001,187440.00012210011,0.013148827696177314,51.568074832471005,02/20/2022
Birds,692 High Road,Leytonstone,London,Waltham Forest,,,E09000031,Leytonstone,E05000605,539510.0001221001,187440.00012210011,0.013148827696177314,51.568074832471005,02/20/2022
North Star,24 Browning Road,Leytonstone,London,Waltham Forest,,,E09000031,Leytonstone,E05000605,539781.0001221001,187583.00012210011,0.017113683285331385,51.56929282329699,02/20/2022
O'Neill's,762 High Street,Leytonstone,London,Waltham Forest,,,E09000031,Leytonstone,E05000605,539703.0001221001,187631.00012210011,0.016007939628519048,51.56974352541142,02/20/2022
Bell,468 High Road,Leytonstone,London,Waltham Forest,,,E09000031,Cann Hall,E05000590,539339.0001221001,186575.00012210011,0.010339940261942505,51.56034348106035,02/20/2022
Leytonstone Tavern,119 Harrow Road,Leytonstone,London,Waltham Forest,,,E09000031,Cann Hall,E05000590,539604.0001221001,186407.00012210011,0.01409401804157759,51.55876815045653,02/20/2022
Heathcote & Star,344 Grove Green Road,Leytonstone,London,Waltham Forest,,,E09000031,Grove Green,E05000596,538917.0001221001,187040.00012210011,0.004439265149653963,51.56462650249004,02/20/2022
Northcote Arms,110 Grove Green Rd,Leyton,London,Waltham Forest,,,E09000031,Grove Green,E05000596,538646.0001221001,186513.00012210011,0.0003236704493223516,51.559957094532294,02/20/2022
Birkbeck Tavern,45 Langthorne Road,Leytonstone,London,Waltham Forest,,,E09000031,Cathall,E05000591,538794.0001221001,186032.00012210011,0.0022676483454787087,51.55559797977679,02/20/2022
Plough & Harrow,419 High Road,Leytonstone,London,Waltham Forest,,,E09000031,Cathall,E05000591,539190.0001221001,186268.00012210011,0.00807007853008002,51.557621301993976,02/20/2022
Shepherd's Inn,483 High Road,Leytonstone,London,Waltham Forest,,,E09000031,Cathall,E05000591,539232.0001221001,186416.00012210011,0.008734220950398247,51.558940994232415,02/20/2022
Urban Bar,176 Whitechapel Road,London,Whitechapel,Tower Hamlets,,,E09000030,Whitechapel,E05009336,534884.0001221001,181833.00012210011,-0.05571241970930297,51.51880908433611,02/20/2022
Blind Beggar,337 Whitechapel Road,London,Whitechapel,Tower Hamlets,,,E09000030,Spitalfields & Banglatown,E05009333,534859.0001221001,181910.00012210011,-0.05604308723868275,51.51950707645908,02/20/2022
Indo,133 Whitechapel Road,London,Whitechapel,Tower Hamlets,,,E09000030,Spitalfields & Banglatown,E05009333,534278.0001221001,181643.00012210011,-0.06451464821212084,51.51724589638275,02/20/2022
Stable,16-18 Whitechapel Rd,Whitechapel,,Tower Hamlets,,,E09000030,Whitechapel,E05009336,534174.0001221001,181527.00012210011,-0.06605695502399617,51.51622807932169,02/20/2022
Castle,44 Commercial Road,London,Whitechapel,Tower Hamlets,,,E09000030,Whitechapel,E05009336,534063.0001221001,181310.00012210011,-0.0677384453737298,51.514304178613685,02/20/2022
Dog & Truck,72 Back Church Lane,London,Whitechapel,Tower Hamlets,,,E09000030,Whitechapel,E05009336,534239.0001221001,181130.00012210011,-0.06527185396583725,51.512644655480166,02/20/2022
Blakesley Arms,53 Station Road,Manor Park,London,Newham,,,E09000025,Manor Park,E05000488,542010.0001221001,185623.00012210011,0.04846553062384746,51.55112189961059,02/20/2022
Golden Fleece,166 Capel Road,Manor Park,London,Newham,,,E09000025,Manor Park,E05000488,541877.0001221001,185957.00012210011,0.04668310151371572,51.55415691718716,02/20/2022
William The Conqueror,628-630 Romford Road,Manor Park,London,Redbridge,,,E09000026,Wanstead Park,E05011254,541295.0001221001,186820.00012210011,0.038639897912070155,51.562058546169766,02/20/2022
Good Samaritan,87 Turner Street,London,Whitechapel,Tower Hamlets,,,E09000030,Whitechapel,E05009336,534623.0001221001,181605.00012210011,-0.05955939396095163,51.51682225075903,02/20/2022
Hungerford Arms,240 Commercial Road,London,Whitechapel,Tower Hamlets,,,E09000030,Shadwell,E05009332,534833.0001221001,181288.00012210011,-0.05665563329045503,51.51392318171424,02/20/2022
Thomas Neale,39 Watney Market,London,Whitechapel,Tower Hamlets,,,E09000030,Shadwell,E05009332,534946.0001221001,181193.00012210011,-0.05506434974067625,51.5130424037926,02/20/2022
Dean Swift,2 Deancross Street,London,Whitechapel,Tower Hamlets,,,E09000030,Shadwell,E05009332,535046.0001221001,181217.00012210011,-0.053614778738876455,51.51323420076114,02/20/2022
Black Lion,59-61 High Street,Plaistow,London,Newham,,,E09000025,Plaistow North,E05000489,540263.0001221001,183281.00012210011,0.022348921443454763,51.53051181232986,02/20/2022
Victoria Tavern,28 High Street,Plaistow,London,Newham,,,E09000025,Plaistow North,E05000489,540343.0001221001,183162.00012210011,0.023454179690310703,51.52942249523055,02/20/2022
Lamb,85 Pelly Road,Plaistow,London,Newham,,,E09000025,Plaistow North,E05000489,540318.0001221001,183586.00012210011,0.02326294793224728,51.53323913278782,02/20/2022
Red House,299 Barking Road,Plaistow,London,Newham,,,E09000025,Canning Town North,E05000477,540094.0001221001,182086.00012210011,0.019438556663421803,51.5198144588202,02/20/2022
Charlie's Bar,247 Barking Road,Plaistow,,Newham,,,E09000025,Canning Town North,E05000477,540094.0001221001,182086.00012210011,0.019438556663421803,51.5198144588202,02/20/2022
Abbey,384 Barking Road,Plaistow,London,Newham,,,E09000025,Canning Town South,E05000478,540300.0001221001,182183.00012210011,0.022444660976434685,51.52063504667454,02/20/2022
Army & Navy,36 New Barn Street,Plaistow,London,Newham,,,E09000025,Canning Town South,E05000478,540459.0001221001,182228.00012210011,0.024753070805462424,51.52099993170429,02/20/2022
Lord Stanley,15 St Mary's Road,Plaistow,London,Newham,,,E09000025,Plaistow North,E05000489,540536.0001221001,183334.00012210011,0.026303615453039622,51.53092021987025,02/20/2022
Queens,410 Green Street,Plaistow,London,Newham,,,E09000025,Boleyn,E05000476,541260.0001221001,183667.00012210011,0.0368690619440415,51.533732115793796,02/20/2022
Manor Arms,150 East India Dock Road,Poplar,London,Tower Hamlets,,,E09000030,Poplar,E05009328,537797.0001221001,180972.00012210011,-0.014086425641706146,51.51036799238559,02/20/2022
Greenwich Pensioner,28 Bazeley Street,Poplar,London,Tower Hamlets,,,E09000030,Poplar,E05009328,538155.0001221001,180861.00012210011,-0.008973820484377225,51.509282994293564,02/20/2022
Hope & Anchor,14 Newby Place,Poplar,London,Tower Hamlets,,,E09000030,Poplar,E05009328,538012.0001221001,180933.00012210011,-0.011005147095800335,51.50996501422739,02/20/2022
Ship,290 Westferry Road,Isle of Dogs,Mudchute,Tower Hamlets,,,E09000030,Island Gardens,E05009324,537663.0001221001,178429.00012210011,-0.017008796125146476,51.48754642689989,02/20/2022
Great Eastern,1 Glenaffric Avenue,Isle of Dogs,Mudchute,Tower Hamlets,,,E09000030,Island Gardens,E05009324,538509.0001221001,178527.00012210011,-0.004791904694185811,51.48822054385873,02/20/2022
Ferry House,26 Ferry Street,Isle of Dogs,Mudchute,Tower Hamlets,,,E09000030,Island Gardens,E05009324,538089.0001221001,178257.00012210011,-0.010943658221232458,51.48589676248905,02/20/2022
George,114 Glengall Grove,Isle of Dogs,Crossharbour,Tower Hamlets,,,E09000030,Blackwall & Cubitt Town,E05009318,538102.0001221001,179292.00012210011,-0.01035151817133316,51.495195231630184,02/20/2022
Ledger Building,4 Hertsmere Road,Canary Wharf,London,Tower Hamlets,,,E09000030,Canary Wharf,E05009323,537241.0001221001,180594.00012210011,-0.02224143220070886,51.50710620026317,02/20/2022
Sipping Room,16 Hertsmere Road,Isle of Dogs,Canary Wharf,Tower Hamlets,,,E09000030,Canary Wharf,E05009323,537326.0001221001,180585.00012210011,-0.021020801557840047,51.50700466301337,02/20/2022
Browns,"Unit A Hertsmere Road, West India Quay",Isle of Dogs,Canary Wharf,Tower Hamlets,,,E09000030,Canary Wharf,E05009323,537326.0001221001,180585.00012210011,-0.021020801557840047,51.50700466301337,02/20/2022
Burger & Lobster,"Unit C, 2 Port East Building,",Isle of Dogs,Canary Wharf,Tower Hamlets,,,E09000030,Canary Wharf,E05009323,537326.0001221001,180585.00012210011,-0.021020801557840047,51.50700466301337,02/20/2022
Merchant,"25-27 Fishermans Walk, Building FC2",Isle of Dogs,Canary Wharf,Tower Hamlets,,,E09000030,Canary Wharf,E05009323,537395.0001221001,180408.00012210011,-0.020096063829190478,51.5053971673543,02/20/2022
Davy's,31-35 Fishermans Walk,Isle of Dogs,Canary Wharf,Tower Hamlets,,,E09000030,Canary Wharf,E05009323,537395.0001221001,180408.00012210011,-0.020096063829190478,51.5053971673543,02/20/2022
Limehouse,10 Cabot Square - Fishermans Walk,Isle of Dogs,Canary Wharf,Tower Hamlets,,,E09000030,Canary Wharf,E05009323,537395.0001221001,180408.00012210011,-0.020096063829190478,51.5053971673543,02/20/2022
Pagination,9 Cabot Square,Isle of Dogs,Canary Wharf,Tower Hamlets,,,E09000030,Canary Wharf,E05009323,537398.0001221001,180327.00012210011,-0.020084421722826554,51.5046684807156,02/20/2022
Henry Addington,22-28 Mackenzie Walk,Canary Wharf,London,Tower Hamlets,,,E09000030,Canary Wharf,E05009323,537374.0001221001,180252.00012210011,-0.020459258409214556,51.504000281397865,02/20/2022
Slug & Lettuce,"51-55 Mackenzie Walk, 30 South Colonnade",Isle of Dogs,Canary Wharf,Tower Hamlets,,,E09000030,Canary Wharf,E05009323,537248.0001221001,180281.00012210011,-0.02226245063442172,51.50429152637843,02/20/2022
Parlour,"Park Pavilion, 40 Canada Sqare",Isle of Dogs,Canary Wharf,Tower Hamlets,,,E09000030,Canary Wharf,E05009323,537550.0001221001,180304.00012210011,-0.017904470645193495,51.504424796464825,02/20/2022
Sports Bar & Grill,1 Crossrail Place,Isle of Dogs,Canary Wharf,Tower Hamlets,,,E09000030,Canary Wharf,E05009323,537632.0001221001,180445.00012210011,-0.016668578675949758,51.505672011669844,02/20/2022
All Bar One,42 McKenzie Walk,Isle of Dogs,Canary Wharf,Tower Hamlets,,,E09000030,Canary Wharf,E05009323,537483.0001221001,180215.00012210011,-0.018904017359271316,51.50364124832876,02/20/2022
Brodies (Bar & Kitchen),43 Fishermans Walk,Isle of Dogs,Canary Wharf,Tower Hamlets,,,E09000030,Canary Wharf,E05009323,537507.0001221001,180388.00012210011,-0.01849094651394982,51.505190179994315,02/20/2022
BrewDog Canary Wharf,"Unit 17, 2 Churchill Place",Canary Wharf,,Tower Hamlets,,,E09000030,Canary Wharf,E05009323,537902.0001221001,180335.00012210011,-0.01282330496532024,51.504617600704805,02/20/2022
Rocket by Balls Brothers,2 Churchill Place,Canary Wharf,,Tower Hamlets,,,E09000030,Canary Wharf,E05009323,537902.0001221001,180335.00012210011,-0.01282330496532024,51.504617600704805,02/20/2022
Festival Inn,71 Grundy Street,Poplar,London,Tower Hamlets,,,E09000030,Lansbury,E05009325,537796.0001221001,181140.00012210011,-0.01403515564143738,51.51187806630026,02/20/2022
Callaghanns,55 Chrisp Street,Poplar,London,Tower Hamlets,,,E09000030,Lansbury,E05009325,537891.0001221001,181207.00012210011,-0.01264065714298165,51.51245701931542,02/20/2022
George IV,7 Ida Street,Poplar,London,Tower Hamlets,,,E09000030,Lansbury,E05009325,538081.0001221001,181106.00012210011,-0.009943615773116948,51.51150291556554,02/20/2022
Crown,667 Commercial Road,Poplar,Limehouse,Tower Hamlets,,,E09000030,Limehouse,E05009326,536891.0001221001,181023.00012210011,-0.027115428251110806,51.51104659856046,02/20/2022
Star Of The East,805a Commercial Road,Poplar,Limehouse,Tower Hamlets,,,E09000030,Mile End,E05009327,536857.0001221001,181120.00012210011,-0.027567466160032857,51.51192659047074,02/20/2022
Craft Beer Co.,576 Commercial Road,Limehouse,London,Tower Hamlets,,,E09000030,Shadwell,E05009332,536092.0001221001,181118.00012210011,-0.03858672570726539,51.51209343133093,02/20/2022
Queens Head,8 Flamborough Street,Poplar,Limehouse,Tower Hamlets,,,E09000030,St. Dunstan's,E05009329,536182.0001221001,181240.00012210011,-0.037243291066865095,51.513168181266614,02/20/2022
Old Ship,17 Barnes Street,Poplar,Limehouse,Tower Hamlets,,,E09000030,St. Dunstan's,E05009329,536111.0001221001,181264.00012210011,-0.03825668244116546,51.51340098661345,02/20/2022
Prince Regent,81 Salmon Lane,Poplar,Limehouse,Tower Hamlets,,,E09000030,St. Dunstan's,E05009329,536340.0001221001,181304.00012210011,-0.03494275977043106,51.5137052487767,02/20/2022
Grapes,76 Narrow Street,Limehouse,London,Tower Hamlets,,,E09000030,Limehouse,E05009326,536603.0001221001,180680.00012210011,-0.03139637897242727,51.508033710142584,02/20/2022
Narrow,44 Narrow Street-Limehouse Basin,Limehouse,London,Tower Hamlets,,,E09000030,Limehouse,E05009326,536603.0001221001,180680.00012210011,-0.03139637897242727,51.508033710142584,02/20/2022
Tooke Arms,165 West Ferry Road,Isle of Dogs,Millwall,Tower Hamlets,,,E09000030,Canary Wharf,E05009323,537152.0001221001,179536.00012210011,-0.023934617037972936,51.497619407698785,02/20/2022
28West,28 Westferry Circus,Isle of Dogs,Millwall,Tower Hamlets,,,E09000030,Canary Wharf,E05009323,536954.0001221001,180416.00012210011,-0.026443839820349056,51.50557612646548,02/20/2022
Gun,27 Coldharbour,Isle of Dogs,Crossharbour,Tower Hamlets,,,E09000030,Blackwall & Cubitt Town,E05009318,538388.0001221001,180046.00012210011,-0.005937974141687322,51.50190152578455,02/20/2022
Pepper Saint Ontiod,21 Pepper Street,Crossharbour,London,Tower Hamlets,,,E09000030,Canary Wharf,E05009323,537718.0001221001,179358.00012210011,-0.015854507318815343,51.49588207090406,02/20/2022
Half Moon,212-223 Mile End Road,London,Stepney,Tower Hamlets,,,E09000030,Bethnal Green,E05009317,535708.0001221001,182177.00012210011,-0.04370977860876727,51.521703293929846,02/20/2022
Horn Of Plenty,36 Globe Road,London,Stepney,Tower Hamlets,,,E09000030,Bethnal Green,E05009317,535630.0001221001,182197.00012210011,-0.04482577819983465,51.5219017777829,02/20/2022
Bancroft Arms,410 Mile End Road,London,Mile End,Tower Hamlets,,,E09000030,St. Dunstan's,E05009329,536074.0001221001,182249.00012210011,-0.03840923925714184,51.52226229850234,02/20/2022
White Hart,1-3 Mile End Road,Whitechapel,,Tower Hamlets,,,E09000030,Bethnal Green,E05009317,535074.0001221001,181976.00012210011,-0.0529205395042531,51.520048855479764,02/20/2022
Builders Arms,302 High Street,Stratford,London,Newham,,,E09000025,Stratford and New Town,E05000492,538679.0001221001,184074.00012210011,-0.00016216331330972712,51.538029817691374,02/20/2022
Railway Tavern,131 Angel Lane,Stratford,London,Newham,,,E09000025,Stratford and New Town,E05000492,538791.0001221001,184805.00012210011,0.0017402045762505613,51.54457174775482,02/20/2022
Bar One,7-9 Leytonstone Road,Stratford,London,Newham,,,E09000025,Stratford and New Town,E05000492,539157.0001221001,185015.00012210011,0.007098495877616179,51.54636885529695,02/20/2022
Eagle,157 Chobham Road,Stratford,London,Newham,,,E09000025,Stratford and New Town,E05000492,538737.0001221001,185273.00012210011,0.001146462444302714,51.5487909184965,02/20/2022
Sportsman,78-102 The Broadway,Stratford,London,Newham,,,E09000025,Stratford and New Town,E05000492,538925.0001221001,184430.00012210011,0.003523512624749741,51.541168669727284,02/20/2022
Goldengrove,146-148 The Grove,Stratford,London,Newham,,,E09000025,Stratford and New Town,E05000492,539065.0001221001,184699.00012210011,0.00564752276654236,51.543551670704346,02/20/2022
012 Bar & Grill,108-110 The Grove,Stratford,London,Newham,,,E09000025,Stratford and New Town,E05000492,539065.0001221001,184699.00012210011,0.00564752276654236,51.543551670704346,02/20/2022
Cart & Horses,1 Maryland Point,Stratford,London,Newham,,,E09000025,Stratford and New Town,E05000492,539078.0001221001,184897.00012210011,0.005913159957848887,51.54532787748472,02/20/2022
Leyton Star,116 High Road Leyton,Stratford,London,Waltham Forest,,,E09000031,Cathall,E05000591,538398.0001221001,185843.00012210011,-0.0035157737590804875,51.55399675148362,02/20/2022
Carpenters Arms,17 Carpenters Road,Stratford,London,Newham,,,E09000025,Stratford and New Town,E05000492,538424.0001221001,183968.00012210011,-0.003878707802573556,51.53713979746257,02/20/2022
Britannia,2 Plaistow Grove,Stratford,London,Newham,,,E09000025,West Ham,E05000494,539698.0001221001,183612.00012210011,0.014339364442055086,51.53362657041236,02/20/2022
City View Hotel,11 Church Street,Stratford,London,Newham,,,E09000025,West Ham,E05000494,539334.0001221001,183833.00012210011,0.00918171005462958,51.53570264652668,02/20/2022
King Edward VII,47 The Broadway,Stratford,London,Newham,,,E09000025,Stratford and New Town,E05000492,538976.0001221001,184348.00012210011,0.00422614685552646,51.540419183330556,02/20/2022
Olde Black Bull,13 Broadway,Stratford,London,Newham,,,E09000025,Stratford and New Town,E05000492,538976.0001221001,184348.00012210011,0.00422614685552646,51.540419183330556,02/20/2022
Refreshment Room,27 The Broadway,Stratford,London,Newham,,,E09000025,Stratford and New Town,E05000492,538976.0001221001,184348.00012210011,0.00422614685552646,51.540419183330556,02/20/2022
Secret Weapon,25 West Ham Lane,Stratford,London,Newham,,,E09000025,Stratford and New Town,E05000492,539085.0001221001,184191.00012210011,0.005734992912506064,51.53898138184708,02/20/2022
Queens Head,5 West Ham Lane,Stratford,London,Newham,,,E09000025,Stratford and New Town,E05000492,539085.0001221001,184191.00012210011,0.005734992912506064,51.53898138184708,02/20/2022
Greyhound,136 West Ham Lane,Stratford,London,Newham,,,E09000025,West Ham,E05000494,539195.0001221001,183977.00012210011,0.00723561360784213,51.53703106021221,02/20/2022
Abbey Tap,14 The Broadway,Stratford,London,Newham,,,E09000025,Stratford and New Town,E05000492,538819.0001221001,184294.00012210011,0.0019421763152160508,51.53997252966082,02/20/2022
Pride of Spitalfields,3 Heneage Street,Spitalfields,,Tower Hamlets,,,E09000030,Spitalfields & Banglatown,E05009333,533978.0001221001,181780.00012210011,-0.06878411651212792,51.518548409796,02/20/2022
Carpenters Arms,135 Cambridge Heath Road,London,Whitechapel,Tower Hamlets,,,E09000030,St. Peter's,E05009331,535014.0001221001,182248.00012210011,-0.05368065508908877,51.522507743587134,02/20/2022
Fox @ Excel,"Warehouse 'K', Mace Gateway",Royal Docks,Canning Town,Newham,,,E09000025,Canning Town South,E05000478,540626.0001221001,180833.00012210011,0.02660217202609877,51.50842171151282,02/20/2022
Streeties,15 Shirley Street,Royal Docks,Canning Town,Newham,,,E09000025,Canning Town South,E05000478,539699.0001221001,181245.00012210011,0.013415077927214783,51.512354302528024,02/20/2022
Fox @ Connaught,Lynx Way,Royal Docks,Canning Town,Newham,,,E09000025,Custom House,E05000479,541629.0001221001,180846.00012210011,0.04105208846933233,51.50828800065991,02/20/2022
Beckton Arms,1 Beckton Road,Royal Docks,Canning Town,Newham,,,E09000025,Canning Town North,E05000477,539848.0001221001,181745.00012210011,0.015759518424436913,51.51681089303057,02/20/2022
Husk Brewing Taproom,"58A Railway Arches, North Woolwich Road",Royal Docks,,Newham,,,E09000025,Royal Docks,E05000491,540197.0001221001,180316.00012210011,0.02021830782738036,51.50388210011269,02/20/2022
Henley Arms,268 Albert Road,Royal Docks,London,Newham,,,E09000025,Royal Docks,E05000491,542964.0001221001,179993.00012210011,0.059931994637186174,51.500286131885346,02/20/2022
Royal Standard Hotel,116 Albert Road,Royal Docks,London,Newham,,,E09000025,Royal Docks,E05000491,543330.0001221001,179932.00012210011,0.06517712908868034,51.49964524136465,02/20/2022
Brick Lane Brews,"Gate 2B Airside, London City Airport,Westside Pier",Custom House,,Newham,,,E09000025,Royal Docks,E05000491,542128.0001221001,180342.00012210011,0.04803522400704046,51.50363337217436,02/20/2022
Reach Bar,"Gallions Hotel, Albert Basin Way",Royal Docks,,Newham,,,E09000025,Beckton,E05000475,544013.0001221001,180639.00012210011,0.07529993824454212,51.505825140635004,02/20/2022
Custom House (Pub & Kitchen),272-283 Victoria Dock Road,Royal Docks,Custom House,Newham,,,E09000025,Custom House,E05000479,540833.0001221001,180979.00012210011,0.029641620479574284,51.50968223017596,02/20/2022
Princess Alexandra,219 Barking Road,London,,Newham,,,E09000025,Canning Town North,E05000477,539927.0001221001,181963.00012210011,0.016984028906165655,51.51875047190584,02/20/2022
Durham Arms,24 Stephenson Street,London,,Newham,,,E09000025,Canning Town North,E05000477,539119.0001221001,181913.00012210011,0.005325031550580625,51.518500734763684,02/20/2022
Gun,54 Brushfield Street,Shoreditch,,Tower Hamlets,,,E09000030,Spitalfields & Banglatown,E05009333,533543.0001221001,181755.00012210011,-0.07506005361740001,51.51842675072789,02/20/2022
English Restaurant,50-52 Brushfield St,London,Spitalfields,Tower Hamlets,,,E09000030,Spitalfields & Banglatown,E05009333,533543.0001221001,181755.00012210011,-0.07506005361740001,51.51842675072789,02/20/2022
Water Poet,11 Folgate Street,London,Spitalfields,Tower Hamlets,,,E09000030,Spitalfields & Banglatown,E05009333,533490.0001221001,181981.00012210011,-0.07573792588638403,51.52047043304201,02/20/2022
Grocer,Spitalfields Market,London,Spitalfields,Tower Hamlets,,,E09000030,Spitalfields & Banglatown,E05009333,533562.0001221001,181853.00012210011,-0.07474919783773534,51.519303022664054,02/20/2022
Galvin Hop,35 Spital Square,Spitalfields,,Tower Hamlets,,,E09000030,Spitalfields & Banglatown,E05009333,533424.0001221001,181893.00012210011,-0.07672206695027821,51.519695138484764,02/20/2022
Boxbar,2-10 Bethnal Green Road,Shoreditch,,Hackney,,,E09000012,Hoxton East & Shoreditch,E05009377,533553.0001221001,182258.00012210011,-0.07472531813124417,51.522945045458776,02/20/2022
Juno,134-135 Shoreditch High Street,London,Shoreditch,Hackney,,,E09000012,Hoxton East & Shoreditch,E05009377,533410.0001221001,182584.00012210011,-0.0766620530767302,51.52590874032673,02/20/2022
Barrio East,141-143 Shoreditch High Street,London,Shoreditch,Hackney,,,E09000012,Hoxton East & Shoreditch,E05009377,533410.0001221001,182584.00012210011,-0.0766620530767302,51.52590874032673,02/20/2022
Corner Shop,123 Shoreditch High Street,London,Shoreditch,Hackney,,,E09000012,Hoxton East & Shoreditch,E05009377,533410.0001221001,182584.00012210011,-0.0766620530767302,51.52590874032673,02/20/2022
Dragon,138-139 Shoreditch High Street,London,Shoreditch,Hackney,,,E09000012,Hoxton East & Shoreditch,E05009377,533410.0001221001,182584.00012210011,-0.0766620530767302,51.52590874032673,02/20/2022
Shoreditch,145 Shoreditch High Street,London,Shoreditch,Hackney,,,E09000012,Hoxton East & Shoreditch,E05009377,533410.0001221001,182584.00012210011,-0.0766620530767302,51.52590874032673,02/20/2022
Dirty Bones,1 Club Row,London,Spitalfields,Tower Hamlets,,,E09000030,Weavers,E05009335,533692.0001221001,182344.00012210011,-0.07269009943622,51.52368506803365,02/20/2022
BrewDog Shoreditch,51-55 Bethnal Green Road,London,Spitalfields,Tower Hamlets,,,E09000030,Weavers,E05009335,533725.0001221001,182349.00012210011,-0.07221276142559278,51.523722190779246,02/20/2022
Culpeper,40 Commercial Street,London,Spitalfields,Tower Hamlets,,,E09000030,Spitalfields & Banglatown,E05009333,533854.0001221001,181473.00012210011,-0.0706870320070992,51.515818687278994,02/20/2022
Ten Bells,84 Commercial Street,London,Spitalfields,Tower Hamlets,,,E09000030,Spitalfields & Banglatown,E05009333,533750.0001221001,181776.00012210011,-0.07207012062676926,51.51856650177228,02/20/2022
Golden Heart,110 Commercial Street,London,Spitalfields,Tower Hamlets,,,E09000030,Spitalfields & Banglatown,E05009333,533711.0001221001,181868.00012210011,-0.07259702758856997,51.51940257594626,02/20/2022
Commercial Tavern,142 Commercial Street,Spitalfields,,Tower Hamlets,,,E09000030,Spitalfields & Banglatown,E05009333,533579.0001221001,182085.00012210011,-0.07441633464530065,51.5213840771554,02/20/2022
Momento Lounge Bar,23-24 Shoreditch High Street,London,Shoreditch,Hackney,,,E09000012,Hoxton East & Shoreditch,E05009377,533460.0001221001,182149.00012210011,-0.07610647067095945,51.52198740686901,02/20/2022
Goose Island Brewpub,222 Shoreditch High Street,London,Shoreditch,Hackney,,,E09000012,Hoxton East & Shoreditch,E05009377,533423.0001221001,182142.00012210011,-0.07664217226469683,51.52193323834089,02/20/2022
Crown & Shuttle,226 Shoreditch High Street,Spitalfields,,Hackney,,,E09000012,Hoxton East & Shoreditch,E05009377,533423.0001221001,182142.00012210011,-0.07664217226469683,51.52193323834089,02/20/2022
Montys Bar & Lounge,149 Brick Lane,London,Spitalfields,Tower Hamlets,,,E09000030,Weavers,E05009335,533871.0001221001,182340.00012210011,-0.07011272136427285,51.52360670970703,02/20/2022
Goose,264 Hoe Street,Walthamstow,London,Waltham Forest,,,E09000031,High Street,E05000599,537324.0001221001,189072.00012210011,-0.017736830141203558,51.583278328122994,02/20/2022
Flowerpot,128 Wood Street,Walthamstow,Upper Walthamstow,Waltham Forest,,,E09000031,Wood Street,E05000609,538341.0001221001,189583.00012210011,-0.0028646590118061427,51.58762186949531,02/20/2022
Duke's Head,112 Wood Street,Walthamstow,Upper Walthamstow,Waltham Forest,,,E09000031,Wood Street,E05000609,538341.0001221001,189583.00012210011,-0.0028646590118061427,51.58762186949531,02/20/2022
Empire Lounge,20 Woodford New Road,Walthamstow,Upper Walthamstow,Waltham Forest,,,E09000031,Wood Street,E05000609,539278.0001221001,190175.00012210011,0.010888212473974914,51.592711210451235,02/20/2022
William Morris,807 Forest Road,Walthamstow,London,Waltham Forest,,,E09000031,Chapel End,E05000592,538081.0001221001,189909.00012210011,-0.006487379276282335,51.590615389860304,02/20/2022
Bell,617 Forest Road,Walthamstow,London,Waltham Forest,,,E09000031,Chapel End,E05000592,537529.0001221001,189782.00012210011,-0.014501365638357182,51.58960907977295,02/20/2022
"Mirth, Marvel & Maud",186 Hoe St,Walthamstow,,Waltham Forest,,,E09000031,High Street,E05000599,537242.0001221001,189372.00012210011,-0.018802435296368027,51.58599440532858,02/20/2022
Victoria,186 Hoe Street,Walthamstow,London,Waltham Forest,,,E09000031,High Street,E05000599,537242.0001221001,189372.00012210011,-0.018802435296368027,51.58599440532858,02/20/2022
Olde Rose & Crown,53-55 Hoe Street,Walthamstow,London,Waltham Forest,,,E09000031,Hoe Street,E05000601,537245.0001221001,189426.00012210011,-0.018738039796050255,51.5864789722085,02/20/2022
Dog & Duck,222 Chingford Road,Walthamstow,Highham Hill,Waltham Forest,,,E09000031,Chapel End,E05000592,537577.0001221001,190706.00012210011,-0.013446491540463392,51.597901305215885,02/20/2022
Wild Card Brewery Taproom,"Unit 2, Lockwood Way",Walthamstow,Walthamstow,Waltham Forest,,,E09000031,Higham Hill,E05000600,535704.0001221001,190316.00012210011,-0.04062555256464023,51.59485077515697,02/20/2022
Warrant Officer,318 Higham Hill Road,Walthamstow,Highham Hill,Waltham Forest,,,E09000031,Higham Hill,E05000600,536207.0001221001,190444.00012210011,-0.03331783903272126,51.59587970420669,02/20/2022
Prince Of Wales,58 St Andrews Road,Walthamstow,Highham Hill,Waltham Forest,,,E09000031,Higham Hill,E05000600,536083.0001221001,190090.00012210011,-0.03524445066495415,51.592728255512505,02/20/2022
Lord Palmerston,252-254 Forest Road,Walthamstow,Highham Hill,Waltham Forest,,,E09000031,High Street,E05000599,536440.0001221001,189560.00012210011,-0.03029947068179125,51.587878759051925,02/20/2022
Chequers,145 High Street,Walthamstow,London,Waltham Forest,,,E09000031,High Street,E05000599,536893.0001221001,189065.00012210011,-0.023957027944242107,51.58332029318895,02/20/2022
Coppermill,205 Coppermill Lane,Walthamstow,London,Waltham Forest,,,E09000031,High Street,E05000599,535868.0001221001,188624.00012210011,-0.038914151907026746,51.57960506607554,02/20/2022
Goergio's Sports Bar & Grill,30 St James's Street,Walthamstow,London,Waltham Forest,,,E09000031,High Street,E05000599,536357.0001221001,188733.00012210011,-0.03181818672771202,51.58046654990818,02/20/2022
Wild Card Brewery Barrel Room,"Unit 7, Ravenswood Industrial Estate, Shernhall Street",Walthamstow,,Waltham Forest,,,E09000031,Wood Street,E05000609,538101.0001221001,189105.00012210011,-0.006515189819606928,51.58338499958968,02/20/2022
Pillars Brewery Tap,"Unit 2, Ravenswood Industrial Estate, Shernhall St.",London,,Waltham Forest,,,E09000031,Wood Street,E05000609,538101.0001221001,189105.00012210011,-0.006515189819606928,51.58338499958968,02/20/2022
Lord Raglan,199 Shernhall Street,Walthamstow,London,Waltham Forest,,,E09000031,Wood Street,E05000609,538456.0001221001,188880.00012210011,-0.0014828638358160796,51.581275827655276,02/20/2022
Castle,15 Grosvenor Rise East,Walthamstow,London,Waltham Forest,,,E09000031,Hoe Street,E05000601,537912.0001221001,188748.00012210011,-0.009381869174753634,51.580222949006206,02/20/2022
Nag's Head,9 Orford Road,Walthamstow,London,Waltham Forest,,,E09000031,Hoe Street,E05000601,537919.0001221001,189058.00012210011,-0.009159112999466052,51.58300718999145,02/20/2022
Queens Arms,42 Orford Road,Walthamstow,London,Waltham Forest,,,E09000031,Hoe Street,E05000601,537761.0001221001,188947.00012210011,-0.011481899582081869,51.582048287896896,02/20/2022
Village,31 Orford Road,Walthamstow,London,Waltham Forest,,,E09000031,Hoe Street,E05000601,537855.0001221001,188970.00012210011,-0.01011690076635523,51.58223199941011,02/20/2022
City Bar & Kitchen,9 Stoney Street c/o White Kennet Lane,London,Aldgate East,City and County of the City of London,,,E09000001,Aldgate,E05009289,533489.0001221001,181335.00012210011,-0.07599705902548076,51.514664805975144,02/20/2022
Bell,50 Middlesex Street,London,Aldgate East,Tower Hamlets,,,E09000030,Spitalfields & Banglatown,E05009333,533634.0001221001,181410.00012210011,-0.073879976292466,51.5153045747773,02/20/2022
Tracks&records,94-98 Middlesex Street,London,Aldgate East,Tower Hamlets,,,E09000030,Spitalfields & Banglatown,E05009333,533551.0001221001,181526.00012210011,-0.07503160101104234,51.51636674436531,02/20/2022
Simmons,21 Widegate Street,London,Liverpool Street,City and County of the City of London,,,E09000001,Bishopsgate,E05009292,533437.0001221001,181662.00012210011,-0.07662227046047179,51.517615976063084,02/20/2022
Kings Stores,14 Widegate Street,Spitalfields,,City and County of the City of London,,,E09000001,Bishopsgate,E05009292,533437.0001221001,181662.00012210011,-0.07662227046047179,51.517615976063084,02/20/2022
Astronomer,125-129 Middlesex Street,London,Aldgate East,City and County of the City of London,,,E09000001,Bishopsgate,E05009292,533398.0001221001,181641.00012210011,-0.07719203085619127,51.51743645322258,02/20/2022
Grapeshots,2-3 Artillery Passage,London,Aldgate East,Tower Hamlets,,,E09000030,Spitalfields & Banglatown,E05009333,533494.0001221001,181659.00012210011,-0.07580230015691636,51.5175755441438,02/20/2022
Williams Ale & Cider House,22-24 Artillery Lane,Spitalfields,,City and County of the City of London,,,E09000001,Bishopsgate,E05009292,533431.0001221001,181686.00012210011,-0.07669961464488516,51.51783309140503,02/20/2022
Bar Locks,21 White Church Lane,London,Aldgate East,Tower Hamlets,,,E09000030,Whitechapel,E05009336,534066.0001221001,181396.00012210011,-0.06766251747804154,51.515076380043936,02/20/2022
White Hart,89 Whitechapel High Street,London,Aldgate East,Tower Hamlets,,,E09000030,Spitalfields & Banglatown,E05009333,533934.0001221001,181410.00012210011,-0.06955859415462423,51.51523351837689,02/20/2022
Lizard Lounge,186-188 George Lane,South Woodford,London,Redbridge,,,E09000026,South Woodford,E05011252,540337.0001221001,190273.00012210011,0.02620694270181969,51.593329069035235,02/20/2022
Slug & Lettuce,184 George Lane,South Woodford,London,Redbridge,,,E09000026,South Woodford,E05011252,540337.0001221001,190273.00012210011,0.02620694270181969,51.593329069035235,02/20/2022
Railway Bell,87 George Lane,South Woodford,London,Redbridge,,,E09000026,South Woodford,E05011252,540594.0001221001,190053.00012210011,0.029826885479826495,51.59128790268774,02/20/2022
George,70-74 High Road,South Woodford,London,Redbridge,,,E09000026,South Woodford,E05011252,540207.0001221001,190221.00012210011,0.024310463903586228,51.592894131995614,02/20/2022
Duke Of Somerset,15 Little Somerset Street,London,Goodmans,City and County of the City of London,,,E09000001,Portsoken,E05009308,533710.0001221001,181201.00012210011,-0.07286451712836588,51.513408223618136,02/20/2022
Goodman's Field,87-91 Mansell Street,London,Goodmans,Tower Hamlets,,,E09000030,Whitechapel,E05009336,533823.0001221001,181045.00012210011,-0.07129609225811323,51.51197943181749,02/20/2022
Princess Of Prussia,15 Prescot Street,London,Goodmans,Tower Hamlets,,,E09000030,Whitechapel,E05009336,533991.0001221001,180942.00012210011,-0.068915448798584,51.51101390850254,02/20/2022
White Swan,21 Alie Street,London,Goodmans,Tower Hamlets,,,E09000030,Whitechapel,E05009336,533935.0001221001,181173.00012210011,-0.06963425549867314,51.513103272973524,02/20/2022
Black Horse,40 Leman Street,London,Goodmans,Tower Hamlets,,,E09000030,Whitechapel,E05009336,534010.0001221001,181097.00012210011,-0.06858285876846304,51.512402444842344,02/20/2022
Oliver Conquest,70 Leman Street,London,Goodmans,Tower Hamlets,,,E09000030,Whitechapel,E05009336,534010.0001221001,181097.00012210011,-0.06858285876846304,51.512402444842344,02/20/2022
Brown Bear,139 Leman Street,London,Goodmans,Tower Hamlets,,,E09000030,Whitechapel,E05009336,534068.0001221001,181059.00012210011,-0.06776189952649354,51.512047162442585,02/20/2022
Running Horse,"7 Piazza Walk, Leman St, Goodmans Field",London,Aldgate,Tower Hamlets,,,E09000030,Whitechapel,E05009336,534030.0001221001,181180.00012210011,-0.06826322338307464,51.513143651749765,02/20/2022
Wilton's Music Hall Mahogany Bar,Graces Alley,Shadwell,Tower Hamlets,Tower Hamlets,,,E09000030,Whitechapel,E05009336,534241.0001221001,180847.00012210011,-0.06535082185007053,51.510100757810584,02/20/2022
Sir Sydney Smith,22 Dock Street,London,,Tower Hamlets,,,E09000030,Whitechapel,E05009336,534137.0001221001,180766.00012210011,-0.066879547528487,51.5093974838166,02/20/2022
Simmons,61 Royal Mint Street,London,Goodmans,Tower Hamlets,,,E09000030,Whitechapel,E05009336,533995.0001221001,180816.00012210011,-0.06890573014766994,51.50988055003332,02/20/2022
Artful Dodger,47 Royal Mint Street,London,Goodmans,Tower Hamlets,,,E09000030,Whitechapel,E05009336,533995.0001221001,180816.00012210011,-0.06890573014766994,51.50988055003332,02/20/2022
Leman Street Tavern,31 Leman Street,London,Goodmans,Tower Hamlets,,,E09000030,Whitechapel,E05009336,534005.0001221001,181185.00012210011,-0.06862142012302742,51.513194519865785,02/20/2022
Bar & Block,66 Alie Street,Aldgate,,Tower Hamlets,,,E09000030,Whitechapel,E05009336,534036.0001221001,181214.00012210011,-0.06816387000270611,51.513447798683934,02/20/2022
Slug & Lettuce,"Unit 1 Tower Bridge House, St Katherine's Dock",London,Wapping,Tower Hamlets,,,E09000030,St. Katharine's & Wapping,E05009330,533847.0001221001,180412.00012210011,-0.07119073469537068,51.506284726485184,02/20/2022
Dickens Inn,"Marble Quay, St Katherine's Way",London,Wapping,Tower Hamlets,,,E09000030,St. Katharine's & Wapping,E05009330,534024.0001221001,180377.00012210011,-0.06865492807048383,51.50592821075605,02/20/2022
Moretown Belle,"5 Thomas Moore Sq, Nesham Street",London,Wapping,Tower Hamlets,,,E09000030,St. Katharine's & Wapping,E05009330,534231.0001221001,180478.00012210011,-0.06563534375593039,51.50678679653541,02/20/2022
Captain Kidd,108 Wapping High Street,London,Wapping,Tower Hamlets,,,E09000030,St. Katharine's & Wapping,E05009330,534738.0001221001,180016.00012210011,-0.05851014195708043,51.5025139718823,02/20/2022
Turk's Head,1 Green Bank,London,Wapping,Tower Hamlets,,,E09000030,St. Katharine's & Wapping,E05009330,534653.0001221001,180148.00012210011,-0.05968378285445374,51.50372056150664,02/20/2022
Town Of Ramsgate,62 Wapping High Street,London,Wapping,Tower Hamlets,,,E09000030,St. Katharine's & Wapping,E05009330,534601.0001221001,180050.00012210011,-0.06047003214391727,51.50285219063914,02/20/2022
Turner's Old Star,14 Watts Street,London,Wapping,Tower Hamlets,,,E09000030,St. Katharine's & Wapping,E05009330,534782.0001221001,180277.00012210011,-0.057776768108687024,51.50484917226821,02/20/2022
White Swan & Cuckoo,97 Wapping Lane,London,Wapping,Tower Hamlets,,,E09000030,St. Katharine's & Wapping,E05009330,534885.0001221001,180282.00012210011,-0.05629153268191722,51.50486953064518,02/20/2022
Prospect of Whitby,57 Wapping Wall,London,Shadwell,Tower Hamlets,,,E09000030,St. Katharine's & Wapping,E05009330,535356.0001221001,180486.00012210011,-0.049430282038727895,51.506590305566235,02/20/2022
Neighbourhood,5254 Celebration Avenue,Stratford,East Village,Newham,,,E09000025,Stratford and New Town,E05000492,538225.0001221001,185055.00012210011,-0.006319484608239646,51.54695743202363,02/20/2022
Tap East,"Montfichet Road, 7 International Square",Westfield Stratford City,London,Newham,,,E09000025,Stratford and New Town,E05000492,538169.0001221001,184681.00012210011,-0.007273556056994059,51.54361001319485,02/20/2022
Bat & Ball,"Unit 1110/1111, Westfield Centre",Stratford City,London,Newham,,,E09000025,Stratford and New Town,E05000492,538345.0001221001,184710.00012210011,-0.00472546864322595,51.543827512465,02/20/2022
Bumpkin,105-106 The Street,Stratford,,Newham,,,E09000025,Stratford and New Town,E05000492,538264.0001221001,184558.00012210011,-0.005952655986686174,51.542481343500185,02/20/2022
Cow,4 Chestnut Plaza,Westfield Stratford City,London,Newham,,,E09000025,Stratford and New Town,E05000492,538282.0001221001,184507.00012210011,-0.005713271236940426,51.54201859634822,02/20/2022
Four Quarters East,"Unit 8 Canalside, East Bay Lane, Here East,Queen Elizabeth Park",Stratford,Stratford,Hackney,,,E09000012,Hackney Wick,E05009374,537230.0001221001,185034.00012210011,-0.02066975477096037,51.54701159367181,02/20/2022
Marquis Of Cornwallis,304 Bethnal Green Road,Bethnal Green,London,Tower Hamlets,,,E09000030,Weavers,E05009335,534350.0001221001,182591.00012210011,-0.0631159442696035,51.52574876496486,02/20/2022
Old George,379 Bethnal Green Road,Bethnal Green,London,Tower Hamlets,,,E09000030,St. Peter's,E05009331,534708.0001221001,182701.00012210011,-0.05791587702072131,51.52665206986348,02/20/2022
Sun Tavern,441 Bethnal Green Road,Bethnal Green,London,Tower Hamlets,,,E09000030,St. Peter's,E05009331,534708.0001221001,182701.00012210011,-0.05791587702072131,51.52665206986348,02/20/2022
Shakespeare,460 Bethnal Green Road,Bethnal Green,London,Tower Hamlets,,,E09000030,St. Peter's,E05009331,534865.0001221001,182692.00012210011,-0.0556572571334387,51.52653370439649,02/20/2022
Bethnal Green Tavern,456 Bethnal Green Road,Bethnal Green,London,Tower Hamlets,,,E09000030,St. Peter's,E05009331,534865.0001221001,182692.00012210011,-0.0556572571334387,51.52653370439649,02/20/2022
Salmon & Ball,502 Bethnal Green Road,Bethnal Green,London,Tower Hamlets,,,E09000030,St. Peter's,E05009331,534865.0001221001,182692.00012210011,-0.0556572571334387,51.52653370439649,02/20/2022
OLd Street Brewery Taproom,"Arch 11, Gales Gardens",Bethnal Green,,Tower Hamlets,,,E09000030,St. Peter's,E05009331,534907.0001221001,182637.00012210011,-0.055073187996376956,51.526029370107416,02/20/2022
Backyard Bar & Kitchen,231 Cambridge Heath Rd,Bethnal Green,Cambridge Heath,Tower Hamlets,,,E09000030,St. Peter's,E05009331,534970.0001221001,182663.00012210011,-0.05415552932684691,51.52624798295503,02/20/2022
Camel,277 Globe Road,Bethnal Green,London,Tower Hamlets,,,E09000030,Bethnal Green,E05009317,535274.0001221001,182846.00012210011,-0.04970523871545471,51.527819897901345,02/20/2022
Florist Arms,255 Globe Road,Bethnal Green,London,Tower Hamlets,,,E09000030,Bethnal Green,E05009317,535274.0001221001,182846.00012210011,-0.04970523871545471,51.527819897901345,02/20/2022
Casa Blue,120 Bethnal Green Road,Bethnal Green,Shoreditch,Tower Hamlets,,,E09000030,Weavers,E05009335,533906.0001221001,182433.00012210011,-0.06957311389772468,51.524434235488336,02/20/2022
Carpenter's Arms,73 Cheshire Street,Bethnal Green,London,Tower Hamlets,,,E09000030,Weavers,E05009335,534223.0001221001,182345.00012210011,-0.06503948550124694,51.52356808502735,02/20/2022
Kings Arms,11a Buckfast Street,Bethnal Green,London,Tower Hamlets,,,E09000030,Weavers,E05009335,534245.0001221001,182489.00012210011,-0.06466764584113169,51.52485703145183,02/20/2022
Star of Bethnal Green,359 Bethnal Green Road,Bethnal Green,London,Tower Hamlets,,,E09000030,St. Peter's,E05009331,534502.0001221001,182667.00012210011,-0.060896930773734356,51.526395612610656,02/20/2022
Workers Arms,"Bethnal Green Working Men's Club, 42-44 Pollard Row",Bethnal Green,,Tower Hamlets,,,E09000030,St. Peter's,E05009331,534443.0001221001,182685.00012210011,-0.06174013337061916,51.52657143619285,02/20/2022
Well & Bucket,143 Bethnal Green Road,Bethnal Green,Shoreditch,Tower Hamlets,,,E09000030,Weavers,E05009335,533912.0001221001,182481.00012210011,-0.06946841992326744,51.52486420585077,02/20/2022
Redchurch,107 Redchurch Street,Bethnal Green,Shoreditch,Tower Hamlets,,,E09000030,Weavers,E05009335,533818.0001221001,182421.00012210011,-0.07084553195559701,51.52434724925009,02/20/2022
Owl & Pussycat,34 Redchurch Street,Bethnal Green,Shoreditch,Tower Hamlets,,,E09000030,Weavers,E05009335,533678.0001221001,182355.00012210011,-0.07288762668395055,51.52378724371341,02/20/2022
Mikkeller Bar,2 Hackney Road,Bethnal Green,Shoreditch,Tower Hamlets,,,E09000030,Weavers,E05009335,533515.0001221001,182699.00012210011,-0.07510561692313276,51.52691747047482,02/20/2022
Birdcage,80 Columbia Road,Bethnal Green,Shoreditch,Tower Hamlets,,,E09000030,Weavers,E05009335,533931.0001221001,182825.00012210011,-0.06906385828012256,51.52795134974244,02/20/2022
Royal Oak,73 Columbia Road,Bethnal Green,Shoreditch,Tower Hamlets,,,E09000030,Weavers,E05009335,534030.0001221001,182925.00012210011,-0.06759934858099557,51.528826590551084,02/20/2022
Nelsons Head,32 Horatio Street,Bethnal Green,Shoreditch,Tower Hamlets,,,E09000030,Weavers,E05009335,533979.0001221001,183093.00012210011,-0.06827027818368298,51.5303485700539,02/20/2022
Marksman,254 Hackney Road,Bethnal Green,Shoreditch,Tower Hamlets,,,E09000030,Weavers,E05009335,534059.0001221001,183107.00012210011,-0.067112201653913,51.53045540096092,02/20/2022
Spread Eagle,3 Kingsland Road,Bethnal Green,Haggerston,Hackney,,,E09000012,Hoxton East & Shoreditch,E05009377,533409.0001221001,182809.00012210011,-0.07659122850606032,51.527931140339405,02/20/2022
Basing House,25 Kingsland Road,Bethnal Green,Haggerston,Hackney,,,E09000012,Hoxton East & Shoreditch,E05009377,533409.0001221001,182809.00012210011,-0.07659122850606032,51.527931140339405,02/20/2022
Glory,281 Kingsland Road,Bethnal Green,Haggerston,Hackney,,,E09000012,Hoxton East & Shoreditch,E05009377,533462.0001221001,183634.00012210011,-0.07551484221763087,51.53533320429151,02/20/2022
Old Shoreditch Station,1 Kingsland Road,Bethnal Green,Shoreditch,Hackney,,,E09000012,Hoxton East & Shoreditch,E05009377,533437.0001221001,182732.00012210011,-0.07621696227063704,51.527232494204554,02/20/2022
Catch,22 Kingsland Road,Bethnal Green,Haggerston,Hackney,,,E09000012,Hoxton East & Shoreditch,E05009377,533437.0001221001,182732.00012210011,-0.07621696227063704,51.527232494204554,02/20/2022
Troyganic,132 Kingsland Road,Bethnal Green,Haggerston,Hackney,,,E09000012,Haggerston,E05009375,533477.0001221001,182945.00012210011,-0.07555989180650395,51.52913735256938,02/20/2022
Brewhouse & Kitchen,397-400 Geffrye Street,Bethnal Green,Haggerston,Hackney,,,E09000012,Haggerston,E05009375,533593.0001221001,183244.00012210011,-0.07377500339362326,51.531797139890784,02/20/2022
Virgin Queen,94 Goldsmiths Row,Bethnal Green,Haggerston,Hackney,,,E09000012,Haggerston,E05009375,534357.0001221001,183399.00012210011,-0.0627067916727738,51.5330088520117,02/20/2022
Sebright Arms,31-35 Coate Street,Bethnal Green,Cambridge Heath,Tower Hamlets,,,E09000030,St. Peter's,E05009331,534453.0001221001,183238.00012210011,-0.06138490493411592,51.531539037876286,02/20/2022
Perseverance,112 Pritchards Road,Bethnal Green,Cambridge Heath,Tower Hamlets,,,E09000030,St. Peter's,E05009331,534489.0001221001,183477.00012210011,-0.06077485895595911,51.533678427527235,02/20/2022
Hare,505 Cambridge Heath Road,Bethnal Green,Cambridge Heath,Tower Hamlets,,,E09000030,St. Peter's,E05009331,534826.0001221001,183402.00012210011,-0.05594731412889239,51.53292398831981,02/20/2022
Victory,27 Vyner Street,Bethnal Green,Cambridge Heath,Tower Hamlets,,,E09000030,St. Peter's,E05009331,535015.0001221001,183539.00012210011,-0.053171277632224,51.53411006887645,02/20/2022
Bistrotheque,2327 Wadeson Street,Bethnal Green,Cambridge Heath,Tower Hamlets,,,E09000030,St. Peter's,E05009331,534902.0001221001,183472.00012210011,-0.05482532811398781,51.53353493952542,02/20/2022
Queen Adelaide,481 Hackney Road,Bethnal Green,Cambridge Heath,Tower Hamlets,,,E09000030,St. Peter's,E05009331,534751.0001221001,183298.00012210011,-0.05706787334300111,51.53200721968756,02/20/2022
Resident,"Arch 252, Paradise Row",Bethnal Green,,Tower Hamlets,,,E09000030,St. Peter's,E05009331,534944.0001221001,182793.00012210011,-0.05448032365243564,51.5274225436117,02/20/2022
Mother Kelly's,251 Paradise Row,Bethnal Green,,Tower Hamlets,,,E09000030,St. Peter's,E05009331,534944.0001221001,182793.00012210011,-0.05448032365243564,51.5274225436117,02/20/2022
Dundee Arms,339 Cambridge Heath Road,Bethnal Green,London,Tower Hamlets,,,E09000030,St. Peter's,E05009331,534937.0001221001,182916.00012210011,-0.054534051536747855,51.528529651553335,02/20/2022
Approach Tavern,47 Approach Road,Bethnal Green,Cambridge Heath,Tower Hamlets,,,E09000030,St. Peter's,E05009331,535233.0001221001,183172.00012210011,-0.05017078484826793,51.53075956364905,02/20/2022
Redchurch Brewery,275-276 poyser street,Bethnal Green,Cambridge Heath,Tower Hamlets,,,E09000030,Lansbury,E05009325,538963.0001221001,181489.00012210011,0.0029106537575220525,51.51472865980671,02/20/2022
Little Driver,125 Bow Road,Bow,London,Tower Hamlets,,,E09000030,Bow West,E05009320,537176.0001221001,182828.00012210011,-0.02230787368522219,51.527199213953885,02/20/2022
Coborn,8 Coborn Road,Bow,London,Tower Hamlets,,,E09000030,Bow West,E05009320,536740.0001221001,182765.00012210011,-0.028614218824047726,51.52673878731053,02/20/2022
Lighthouse,421 Wick Lane,Bow,London,Tower Hamlets,,,E09000030,Bow East,E05009319,537273.0001221001,183789.00012210011,-0.020535626457519357,51.53581223019104,02/20/2022
Muller & Briggs,130 Cadogan Terrace,Hackney Wick,,Tower Hamlets,,,E09000030,Bow East,E05009319,536900.0001221001,184113.00012210011,-0.02578479184705601,51.53881464624887,02/20/2022
Old Wheatsheaf,3 Windmill Hill,Enfield,,Enfield,,,E09000010,Town,E05000210,532249.0001221001,196722.00012210011,-0.08806150608664208,51.65324533825825,02/20/2022
Bow Bells,116 Bow Road,Bow,Bromley By Bow,Tower Hamlets,,,E09000030,Bromley North,E05009321,537425.0001221001,182854.00012210011,-0.018710155388110154,51.527372325942665,02/20/2022
